{"type":"FeatureCollection","features":[{"type":"Feature","properties":{"name":"\u93ae\u5b89\u5bae"},"geometry":{"type":"Point","coordinates":[120.40226402249,23.325310028149]}},{"type":"Feature","properties":{"name":"\u6de8\u9748\u5bfa"},"geometry":{"type":"Point","coordinates":[120.26077227857,23.187355060168]}},{"type":"Feature","properties":{"name":"\u5b89\u8056\u5bae"},"geometry":{"type":"Point","coordinates":[120.20612230294,23.012950960875]}},{"type":"Feature","properties":{"name":"\u4ee3\u5929\u5e9c\u671d\u7687\u5bae"},"geometry":{"type":"Point","coordinates":[120.23976722751,23.008475583984]}},{"type":"Feature","properties":{"name":"\u4e2d\u8208\u516c\u539d"},"geometry":{"type":"Point","coordinates":[120.40184047585,23.047653757767]}},{"type":"Feature","properties":{"name":"\u4e09\u5e73\u5ee3\u6fdf\u5bae"},"geometry":{"type":"Point","coordinates":[120.185703004,22.995333383931]}},{"type":"Feature","properties":{"name":"\u8056\u5b89\u5bae"},"geometry":{"type":"Point","coordinates":[120.41747170651,23.147000264178]}},{"type":"Feature","properties":{"name":"\u5317\u6975\u7384\u5929\u5bae"},"geometry":{"type":"Point","coordinates":[120.17934820135,23.153967359121]}},{"type":"Feature","properties":{"name":"\u516b\u5409\u5883\u6aa8\u4ed4\u6797\u671d\u8208\u5bae\u99ac\u5175\u71df\u4fdd\u548c\u5bae"},"geometry":{"type":"Point","coordinates":[120.2017791188,22.991317964735]}},{"type":"Feature","properties":{"name":"\u96f7\u97f3\u6bbf"},"geometry":{"type":"Point","coordinates":[120.52256690053,23.063772711007]}},{"type":"Feature","properties":{"name":"\u5357\u5316\u4e94\u5cef\u5c71\u9f8d\u6e56\u5bfa"},"geometry":{"type":"Point","coordinates":[120.4965486788,23.026495676073]}},{"type":"Feature","properties":{"name":"\u6e05\u5be7\u592a\u5b50\u5bae"},"geometry":{"type":"Point","coordinates":[120.25223221301,22.968488389079]}},{"type":"Feature","properties":{"name":"\u53f0\u5357\u5e02\u5357\u5e9c\u8056\u8ce2\u793e\u8056\u61ff\u5802"},"geometry":{"type":"Point","coordinates":[120.1931673444,22.969440836466]}},{"type":"Feature","properties":{"name":"\u7576\u5b38\u5a46\u7956\u5edf"},"geometry":{"type":"Point","coordinates":[120.23691426483,23.147748908357]}},{"type":"Feature","properties":{"name":"\u798f\u5442\u5e9c"},"geometry":{"type":"Point","coordinates":[120.42327615301,23.354430757487]}},{"type":"Feature","properties":{"name":"\u6c34\u660e\u6bbf"},"geometry":{"type":"Point","coordinates":[120.24281793029,22.938917002405]}},{"type":"Feature","properties":{"name":"\u5510\u76df\u5bae"},"geometry":{"type":"Point","coordinates":[120.16176750565,23.182310518218]}},{"type":"Feature","properties":{"name":"\u6b66\u82f1\u6bbf"},"geometry":{"type":"Point","coordinates":[120.19302798643,22.989048701093]}},{"type":"Feature","properties":{"name":"\u77f3\u68af\u4ee3\u5929\u5e9c"},"geometry":{"type":"Point","coordinates":[120.37161068979,22.963078259988]}},{"type":"Feature","properties":{"name":"\u8ca1\u5718\u6cd5\u4eba\u81fa\u5357\u5e02\u826f\u7687\u5bae"},"geometry":{"type":"Point","coordinates":[120.19828969673,22.990452055453]}},{"type":"Feature","properties":{"name":"\u5fd7\u4f2f\u7960"},"geometry":{"type":"Point","coordinates":[120.18905678599,22.982968221874]}},{"type":"Feature","properties":{"name":"\u91d1\u7384\u6bbf"},"geometry":{"type":"Point","coordinates":[120.23099253382,22.966155162978]}},{"type":"Feature","properties":{"name":"\u89d2\u79c0\u5317\u6975\u6bbf"},"geometry":{"type":"Point","coordinates":[120.33966782699,23.212759538901]}},{"type":"Feature","properties":{"name":"\u4e2d\u8107\u6c38\u5b89\u5bae"},"geometry":{"type":"Point","coordinates":[120.34182060733,23.187939416513]}},{"type":"Feature","properties":{"name":"\u958b\u5929\u5e9c"},"geometry":{"type":"Point","coordinates":[120.39323779391,23.386233971565]}},{"type":"Feature","properties":{"name":"\u4e2d\u5b89\u5bae"},"geometry":{"type":"Point","coordinates":[120.21249946831,23.03114535296]}},{"type":"Feature","properties":{"name":"\u9f8d\u5c71\u5bfa"},"geometry":{"type":"Point","coordinates":[120.17203863578,22.961551830655]}},{"type":"Feature","properties":{"name":"\u6148\u96f2\u5bae"},"geometry":{"type":"Point","coordinates":[120.50493377349,23.333920827329]}},{"type":"Feature","properties":{"name":"\u805a\u5b8b\u5bae"},"geometry":{"type":"Point","coordinates":[120.19584254275,22.994785743497]}},{"type":"Feature","properties":{"name":"\u7121\u6975\u8056\u5929\u5bae"},"geometry":{"type":"Point","coordinates":[120.50405158583,23.036254208505]}},{"type":"Feature","properties":{"name":"\u5357\u967d\u8056\u5802\u4fee\u9053\u9662"},"geometry":{"type":"Point","coordinates":[120.47623999861,23.067401230899]}},{"type":"Feature","properties":{"name":"\u53f0\u7063\u7701\u53f0\u5357\u5e02\u9e7f\u8033\u9580\u5929\u540e\u5bae"},"geometry":{"type":"Point","coordinates":[120.1250918734,23.036815989678]}},{"type":"Feature","properties":{"name":"\u5de1\u5b89\u5bae"},"geometry":{"type":"Point","coordinates":[120.1683223597,23.245030469952]}},{"type":"Feature","properties":{"name":"\u4e09\u5929\u5bae"},"geometry":{"type":"Point","coordinates":[120.19414695659,22.948568544993]}},{"type":"Feature","properties":{"name":"\u6b66\u8056\u6bbf"},"geometry":{"type":"Point","coordinates":[120.20628240023,23.039011011864]}},{"type":"Feature","properties":{"name":"\u9806\u5929\u5e9c"},"geometry":{"type":"Point","coordinates":[120.21984573982,23.06798507601]}},{"type":"Feature","properties":{"name":"\u6148\u5316\u4ead\u89c0\u97f3\u8b1b\u5802"},"geometry":{"type":"Point","coordinates":[120.17778667259,22.938534374504]}},{"type":"Feature","properties":{"name":"\u4f5b\u5929\u5bae"},"geometry":{"type":"Point","coordinates":[120.1652605706,23.163007858905]}},{"type":"Feature","properties":{"name":"\u842c\u798f\u5eb5"},"geometry":{"type":"Point","coordinates":[120.20294503737,22.996191979158]}},{"type":"Feature","properties":{"name":"\u4e5d\u4e09\u5edf"},"geometry":{"type":"Point","coordinates":[120.25695017696,23.027671976196]}},{"type":"Feature","properties":{"name":"\u6c38\u83ef\u5bae"},"geometry":{"type":"Point","coordinates":[120.20524561271,22.989793043983]}},{"type":"Feature","properties":{"name":"\u5ee3\u6fdf\u96f7\u97f3\u5bae"},"geometry":{"type":"Point","coordinates":[120.23096312817,23.005098772489]}},{"type":"Feature","properties":{"name":"\u5929\u5cb3\u5c71\u5149\u660e\u5bfa"},"geometry":{"type":"Point","coordinates":[120.31118150678,22.98632200643]}},{"type":"Feature","properties":{"name":"\u842c\u7687\u5bae"},"geometry":{"type":"Point","coordinates":[120.17694524501,22.941617693151]}},{"type":"Feature","properties":{"name":"\u8ed2\u8f45\u795e\u5bae"},"geometry":{"type":"Point","coordinates":[120.19919544562,23.068212097725]}},{"type":"Feature","properties":{"name":"\u958b\u53f0\u5929\u540e\u5bae"},"geometry":{"type":"Point","coordinates":[120.16062124542,23.000577250318]}},{"type":"Feature","properties":{"name":"\u56db\u9023\u5bae"},"geometry":{"type":"Point","coordinates":[120.17443072813,22.994690521093]}},{"type":"Feature","properties":{"name":"\u91d1\u5b97\u79aa\u5bfa"},"geometry":{"type":"Point","coordinates":[120.50854458374,23.04204772457]}},{"type":"Feature","properties":{"name":"\u958b\u57fa\u5171\u5584\u5802"},"geometry":{"type":"Point","coordinates":[120.19996747115,22.998900544589]}},{"type":"Feature","properties":{"name":"\u89c0\u6e21\u5bae"},"geometry":{"type":"Point","coordinates":[120.23393781522,23.0954125444]}},{"type":"Feature","properties":{"name":"\u5927\u4eba\u5edf"},"geometry":{"type":"Point","coordinates":[120.21189147545,22.989273234494]}},{"type":"Feature","properties":{"name":"\u4e8c\u7532\u4ee3\u5929\u5e9c"},"geometry":{"type":"Point","coordinates":[120.30035573636,22.953599603419]}},{"type":"Feature","properties":{"name":"\u4e09\u5b98\u5927\u5e1d\u5edf"},"geometry":{"type":"Point","coordinates":[120.19255009791,22.976588481283]}},{"type":"Feature","properties":{"name":"\u8ca1\u5718\u6cd5\u4eba\u53f0\u5357\u5e02\u93ae\u5357\u738b\u5e9c"},"geometry":{"type":"Point","coordinates":[120.19001131304,23.011545631794]}},{"type":"Feature","properties":{"name":"\u6cd5\u85cf\u8b1b\u5802"},"geometry":{"type":"Point","coordinates":[120.28505427428,22.968976072565]}},{"type":"Feature","properties":{"name":"\u8b77\u5e87\u5bae"},"geometry":{"type":"Point","coordinates":[120.30386133146,23.309590405863]}},{"type":"Feature","properties":{"name":"\u7af9\u6797\u5bfa"},"geometry":{"type":"Point","coordinates":[120.50229996781,23.292171098165]}},{"type":"Feature","properties":{"name":"\u6fa4\u6e05\u5bae"},"geometry":{"type":"Point","coordinates":[120.21906593732,22.917165477758]}},{"type":"Feature","properties":{"name":"\u798f\u7950\u6e05\u5bae"},"geometry":{"type":"Point","coordinates":[120.24342348526,22.974179056133]}},{"type":"Feature","properties":{"name":"\u9a6a\u5c71\u8001\u6bcd\u5bae"},"geometry":{"type":"Point","coordinates":[120.47933400294,23.064801668839]}},{"type":"Feature","properties":{"name":"\u91cd\u8208\u5bae"},"geometry":{"type":"Point","coordinates":[120.39915715559,23.348002429736]}},{"type":"Feature","properties":{"name":"\u5317\u6975\u6bbf"},"geometry":{"type":"Point","coordinates":[120.24012977839,22.962522648504]}},{"type":"Feature","properties":{"name":"\u5317\u7384\u5bae"},"geometry":{"type":"Point","coordinates":[120.25362923483,23.130281677922]}},{"type":"Feature","properties":{"name":"\u8ca1\u5718\u6cd5\u4eba\u53f0\u7063\u7701\u81fa\u5357\u7e23\u95dc\u5edf\u6fdf\u751f\u5802"},"geometry":{"type":"Point","coordinates":[120.32498234482,22.980727505945]}},{"type":"Feature","properties":{"name":"\u8ca1\u5718\u6cd5\u4eba\u53f0\u7063\u7701\u53f0\u5357\u7e23\u95dc\u5edf\u6fdf\u751f\u5802"},"geometry":{"type":"Point","coordinates":[120.32498234482,22.980727505945]}},{"type":"Feature","properties":{"name":"\u975c\u5b89\u5bae"},"geometry":{"type":"Point","coordinates":[120.25347124709,23.114031736981]}},{"type":"Feature","properties":{"name":"\u822c\u82e5\u4f5b\u82d1"},"geometry":{"type":"Point","coordinates":[120.50067415474,23.33837558849]}},{"type":"Feature","properties":{"name":"\u842c\u5143\u5edf"},"geometry":{"type":"Point","coordinates":[120.18483833765,22.92393780291]}},{"type":"Feature","properties":{"name":"\u5c0f\u5317\u93ae\u5c71\u57ce\u968d\u5edf"},"geometry":{"type":"Point","coordinates":[120.20435064195,23.001524925377]}},{"type":"Feature","properties":{"name":"\u4fdd\u5b89\u5bae"},"geometry":{"type":"Point","coordinates":[120.18061227068,22.925278434634]}},{"type":"Feature","properties":{"name":"\u53f0\u5357\u5929\u5e2b\u5e9c"},"geometry":{"type":"Point","coordinates":[120.3183827174,22.971109976102]}},{"type":"Feature","properties":{"name":"\u7d2b\u96f2\u5bae"},"geometry":{"type":"Point","coordinates":[120.253781641,22.966619747268]}},{"type":"Feature","properties":{"name":"\u9ebb\u8c46\u6c38\u6de8\u5bfa"},"geometry":{"type":"Point","coordinates":[120.2569156461,23.190798277189]}},{"type":"Feature","properties":{"name":"\u4e09\u8001\u723a\u5bae"},"geometry":{"type":"Point","coordinates":[120.20501149156,23.000160901961]}},{"type":"Feature","properties":{"name":"\u842c\u9748\u516c\u5edf"},"geometry":{"type":"Point","coordinates":[120.37984615802,23.374722899056]}},{"type":"Feature","properties":{"name":"\u4f5b\u8056\u58c7"},"geometry":{"type":"Point","coordinates":[120.33459956865,23.363745627539]}},{"type":"Feature","properties":{"name":"\u7d2b\u7af9\u5bfa"},"geometry":{"type":"Point","coordinates":[120.19689826966,22.978818440681]}},{"type":"Feature","properties":{"name":"\u4e8c\u5929\u5e9c"},"geometry":{"type":"Point","coordinates":[120.17925151524,22.925943251595]}},{"type":"Feature","properties":{"name":"\u8b77\u6fdf\u5bae"},"geometry":{"type":"Point","coordinates":[120.24442191346,23.320685103465]}},{"type":"Feature","properties":{"name":"\u8ca1\u5718\u6cd5\u4eba\u53f0\u7063\u7701\u53f0\u5357\u7e23\u897f\u6e2f\u9109\u5f8c\u71df\u8521\u6c0f\u5b97\u7960"},"geometry":{"type":"Point","coordinates":[120.21776763612,23.144730320977]}},{"type":"Feature","properties":{"name":"\u678b\u5b50\u6797\u6176\u5b89\u5bae"},"geometry":{"type":"Point","coordinates":[120.39554513156,23.292862272084]}},{"type":"Feature","properties":{"name":"\u4e2d\u5b89\u5bae"},"geometry":{"type":"Point","coordinates":[120.24309088091,23.159923157317]}},{"type":"Feature","properties":{"name":"\u53f0\u5357\u5e02\u5b89\u5e73\u5340\u89c0\u97f3\u4ead"},"geometry":{"type":"Point","coordinates":[120.1627246217,23.000202258191]}},{"type":"Feature","properties":{"name":"\u6e05\u6148\u5bae"},"geometry":{"type":"Point","coordinates":[120.12493218915,23.019826737387]}},{"type":"Feature","properties":{"name":"\u5357\u5316\u5929\u540e\u5bae"},"geometry":{"type":"Point","coordinates":[120.47611312369,23.044201236208]}},{"type":"Feature","properties":{"name":"\u671d\u5929\u5bae"},"geometry":{"type":"Point","coordinates":[120.39195461093,23.124202437842]}},{"type":"Feature","properties":{"name":"\u8056\u59d1\u5edf"},"geometry":{"type":"Point","coordinates":[120.34945749503,23.22244880281]}},{"type":"Feature","properties":{"name":"\u9748\u7956\u6bbf"},"geometry":{"type":"Point","coordinates":[120.33195624203,23.197280573762]}},{"type":"Feature","properties":{"name":"\u5357\u83ef\u5bfa"},"geometry":{"type":"Point","coordinates":[120.14730877195,23.076667007364]}},{"type":"Feature","properties":{"name":"\u5357\u5c71\u5e9c"},"geometry":{"type":"Point","coordinates":[120.19910833286,22.967862777737]}},{"type":"Feature","properties":{"name":"\u89c0\u97f3\u4f5b\u5802"},"geometry":{"type":"Point","coordinates":[120.28432733437,23.077570646319]}},{"type":"Feature","properties":{"name":"\u65b0\u5357\u5bae"},"geometry":{"type":"Point","coordinates":[120.19056458296,22.991809465202]}},{"type":"Feature","properties":{"name":"\u5c0f\u5357\u6d77\u666e\u9640\u5bfa"},"geometry":{"type":"Point","coordinates":[120.39418574002,23.390383474521]}},{"type":"Feature","properties":{"name":"\u6b66\u8208\u5bae"},"geometry":{"type":"Point","coordinates":[120.40397269111,23.326999056626]}},{"type":"Feature","properties":{"name":"\u9e7d\u57d5\u89c0\u97f3\u5bfa"},"geometry":{"type":"Point","coordinates":[120.19026715145,22.970395346466]}},{"type":"Feature","properties":{"name":"\u53f0\u5357\u5e02\u64c7\u8ce2\u5802"},"geometry":{"type":"Point","coordinates":[120.20321540594,22.991340455521]}},{"type":"Feature","properties":{"name":"\u6e05\u6c34\u5bfa"},"geometry":{"type":"Point","coordinates":[120.19953192037,23.077764332736]}},{"type":"Feature","properties":{"name":"\u8209\u4eba\u516c\u5edf"},"geometry":{"type":"Point","coordinates":[120.4016649422,23.352376771951]}},{"type":"Feature","properties":{"name":"\u8208\u4e00\u8056\u9053\u9662"},"geometry":{"type":"Point","coordinates":[120.48340019205,23.282510758344]}},{"type":"Feature","properties":{"name":"\u5357\u6d77\u79aa\u5bfa"},"geometry":{"type":"Point","coordinates":[120.3798397642,23.025011706204]}},{"type":"Feature","properties":{"name":"\u7e3d\u8d95\u5bae"},"geometry":{"type":"Point","coordinates":[120.19976027918,22.992051501981]}},{"type":"Feature","properties":{"name":"\u672a\u5929\u5bae"},"geometry":{"type":"Point","coordinates":[120.49731499707,23.085828490236]}},{"type":"Feature","properties":{"name":"\u6c60\u6731\u674e\u5343\u6b72\u5edf"},"geometry":{"type":"Point","coordinates":[120.21021598813,22.992515112456]}},{"type":"Feature","properties":{"name":"\u897f\u83ef\u5802"},"geometry":{"type":"Point","coordinates":[120.2104106886,22.999590115215]}},{"type":"Feature","properties":{"name":"\u5927\u8056\u6d77\u822c\u82e5\u79aa\u5bfa"},"geometry":{"type":"Point","coordinates":[120.39428564264,23.386097437657]}},{"type":"Feature","properties":{"name":"\u897f\u9f8d\u6bbf"},"geometry":{"type":"Point","coordinates":[120.15961771744,23.001130618324]}},{"type":"Feature","properties":{"name":"\u5949\u5929\u5bfa"},"geometry":{"type":"Point","coordinates":[120.38082601755,23.150500186806]}},{"type":"Feature","properties":{"name":"\u53b2\u738b\u5bae"},"geometry":{"type":"Point","coordinates":[120.19939641242,22.997105992558]}},{"type":"Feature","properties":{"name":"\u614e\u5fb7\u5802"},"geometry":{"type":"Point","coordinates":[120.41972996496,23.122545618367]}},{"type":"Feature","properties":{"name":"\u6e05\u6c34\u5bfa"},"geometry":{"type":"Point","coordinates":[120.20618240473,22.991801438234]}},{"type":"Feature","properties":{"name":"\u6771\u5dbd\u6bbf"},"geometry":{"type":"Point","coordinates":[120.20943227986,22.990453504413]}},{"type":"Feature","properties":{"name":"\u6e05\u6c34\u5bfa"},"geometry":{"type":"Point","coordinates":[120.38109687125,23.086356757247]}},{"type":"Feature","properties":{"name":"\u5929\u540e\u5bae"},"geometry":{"type":"Point","coordinates":[120.35792888754,23.10276956628]}},{"type":"Feature","properties":{"name":"\u5f18\u8208\u5bae"},"geometry":{"type":"Point","coordinates":[120.33328630751,23.110414863423]}},{"type":"Feature","properties":{"name":"\u8056\u516c\u5edf"},"geometry":{"type":"Point","coordinates":[120.21502607262,22.986030804516]}},{"type":"Feature","properties":{"name":"\u5fe0\u70c8\u5edf"},"geometry":{"type":"Point","coordinates":[120.45993215917,23.123799202135]}},{"type":"Feature","properties":{"name":"\u4f5b\u5149\u5c71\u53f0\u5357\u798f\u570b\u5bfa"},"geometry":{"type":"Point","coordinates":[120.22014823909,23.060879174023]}},{"type":"Feature","properties":{"name":"\u671d\u7687\u5bae"},"geometry":{"type":"Point","coordinates":[120.18372420693,23.040316636853]}},{"type":"Feature","properties":{"name":"\u5927\u6148\u5bae"},"geometry":{"type":"Point","coordinates":[120.21149868092,23.049966912355]}},{"type":"Feature","properties":{"name":"\u8056\u5b89\u5bae"},"geometry":{"type":"Point","coordinates":[120.12305526138,23.075333258118]}},{"type":"Feature","properties":{"name":"\u6e05\u6148\u5bae"},"geometry":{"type":"Point","coordinates":[120.21171209144,23.042973388361]}},{"type":"Feature","properties":{"name":"\u666e\u660e\u4f5b\u5bfa"},"geometry":{"type":"Point","coordinates":[120.25410402841,22.969057170723]}},{"type":"Feature","properties":{"name":"\u798f\u5fb7\u7960"},"geometry":{"type":"Point","coordinates":[120.21351091418,23.01883692068]}},{"type":"Feature","properties":{"name":"\u6b63\u89ba\u5bfa"},"geometry":{"type":"Point","coordinates":[120.21351091418,23.01883692068]}},{"type":"Feature","properties":{"name":"\u9f8d\u864e\u5bfa"},"geometry":{"type":"Point","coordinates":[120.5022234753,23.035878669662]}},{"type":"Feature","properties":{"name":"\u7687\u84ee\u5bae"},"geometry":{"type":"Point","coordinates":[120.21372482146,23.01509012108]}},{"type":"Feature","properties":{"name":"\u5c0f\u5d19\u592a\u5b50\u5bae"},"geometry":{"type":"Point","coordinates":[120.48557564126,23.05754314328]}},{"type":"Feature","properties":{"name":"\u8208\u8fb2\u5bae"},"geometry":{"type":"Point","coordinates":[120.50958824474,23.046069968227]}},{"type":"Feature","properties":{"name":"\u4e09\u8056\u5bae"},"geometry":{"type":"Point","coordinates":[120.24959126274,22.940466617071]}},{"type":"Feature","properties":{"name":"\u5927\u5c71\u5bae"},"geometry":{"type":"Point","coordinates":[120.22161116387,23.194372250326]}},{"type":"Feature","properties":{"name":"\u4e0a\u5e1d\u516c\u58c7"},"geometry":{"type":"Point","coordinates":[120.33429808643,22.961794618244]}},{"type":"Feature","properties":{"name":"\u6c38\u5b89\u5802"},"geometry":{"type":"Point","coordinates":[120.32816023672,23.365705864203]}},{"type":"Feature","properties":{"name":"\u5b87\u5b99\u5149\u666e\u97f3\u5bfa"},"geometry":{"type":"Point","coordinates":[120.41254707192,23.368509799906]}},{"type":"Feature","properties":{"name":"\u7af9\u6eaa\u79aa\u5bfa"},"geometry":{"type":"Point","coordinates":[120.20861264688,22.977434795777]}},{"type":"Feature","properties":{"name":"\u5c64\u6797\u6a39\u738b\u516c\u5edf"},"geometry":{"type":"Point","coordinates":[120.42527403647,23.065648215029]}},{"type":"Feature","properties":{"name":"\u5317\u5b89\u5bae"},"geometry":{"type":"Point","coordinates":[120.49258490496,23.07698163609]}},{"type":"Feature","properties":{"name":"\u7389\u6e56\u6de8\u82d1"},"geometry":{"type":"Point","coordinates":[120.49156103833,23.163337678053]}},{"type":"Feature","properties":{"name":"\u5f35\u8056\u5bae"},"geometry":{"type":"Point","coordinates":[120.24593442536,23.269834515387]}},{"type":"Feature","properties":{"name":"\u5c0f\u5d19\u958b\u8056\u5bae"},"geometry":{"type":"Point","coordinates":[120.49482845496,23.060574514274]}},{"type":"Feature","properties":{"name":"\u7e3d\u982d\u5bee\u8208\u5b89\u5bae"},"geometry":{"type":"Point","coordinates":[120.20187740003,23.05500106001]}},{"type":"Feature","properties":{"name":"\u6587\u8861\u6bbf"},"geometry":{"type":"Point","coordinates":[120.2556021847,23.190363777722]}},{"type":"Feature","properties":{"name":"\u4fdd\u5b89\u5bae"},"geometry":{"type":"Point","coordinates":[120.17857786281,23.104928768335]}},{"type":"Feature","properties":{"name":"\u9032\u8208\u5bae"},"geometry":{"type":"Point","coordinates":[120.19546861722,23.152109685769]}},{"type":"Feature","properties":{"name":"\u4e09\u5143\u5bae"},"geometry":{"type":"Point","coordinates":[120.2326571709,23.209457294344]}},{"type":"Feature","properties":{"name":"\u6bd3\u4f5b\u5bae"},"geometry":{"type":"Point","coordinates":[120.1862585063,23.152665413336]}},{"type":"Feature","properties":{"name":"\u798f\u738b\u5bae"},"geometry":{"type":"Point","coordinates":[120.23953863615,23.317429709131]}},{"type":"Feature","properties":{"name":"\u8056\u8ae6\u79aa\u5bfa"},"geometry":{"type":"Point","coordinates":[120.36903683384,22.991141332487]}},{"type":"Feature","properties":{"name":"\u795d\u4e09\u591a\u5edf"},"geometry":{"type":"Point","coordinates":[120.2127633898,22.988642388091]}},{"type":"Feature","properties":{"name":"\u540c\u5b89\u5bae"},"geometry":{"type":"Point","coordinates":[120.18394772374,22.925136409672]}},{"type":"Feature","properties":{"name":"\u662d\u6e05\u5bae"},"geometry":{"type":"Point","coordinates":[120.17033603964,23.158982326859]}},{"type":"Feature","properties":{"name":"\u6c99\u6dd8\u5bae"},"geometry":{"type":"Point","coordinates":[120.19924881774,22.993122870865]}},{"type":"Feature","properties":{"name":"\u6d77\u5b89\u5bae"},"geometry":{"type":"Point","coordinates":[120.19525772427,22.997327388783]}},{"type":"Feature","properties":{"name":"\u6148\u6069\u5802"},"geometry":{"type":"Point","coordinates":[120.35097512698,22.938318642482]}},{"type":"Feature","properties":{"name":"\u5ee3\u6148\u9662"},"geometry":{"type":"Point","coordinates":[120.20696382248,22.9964021436]}},{"type":"Feature","properties":{"name":"\u65b0\u57d4\u4ee3\u5929\u5e9c"},"geometry":{"type":"Point","coordinates":[120.32780432979,22.969623623893]}},{"type":"Feature","properties":{"name":"\u795e\u8fb2\u6bbf"},"geometry":{"type":"Point","coordinates":[120.2052452605,23.004032748741]}},{"type":"Feature","properties":{"name":"\u4e09\u9748\u6bbf"},"geometry":{"type":"Point","coordinates":[120.16300097964,23.002112854507]}},{"type":"Feature","properties":{"name":"\u767d\u4ed9\u5bae"},"geometry":{"type":"Point","coordinates":[120.21238674432,23.025240906886]}},{"type":"Feature","properties":{"name":"\u975c\u6797\u79aa\u5bfa"},"geometry":{"type":"Point","coordinates":[120.36742330173,23.027772681784]}},{"type":"Feature","properties":{"name":"\u975c\u6797\u79aa\u5bfa"},"geometry":{"type":"Point","coordinates":[120.36742330173,23.027772681784]}},{"type":"Feature","properties":{"name":"\u4ec0\u4e09\u4f43\u6176\u8208\u5bae"},"geometry":{"type":"Point","coordinates":[120.19835502086,23.05095538037]}},{"type":"Feature","properties":{"name":"\u6d77\u5c3e\u4ee3\u5929\u5bae"},"geometry":{"type":"Point","coordinates":[120.18313973486,23.041258433552]}},{"type":"Feature","properties":{"name":"\u6148\u96f2\u5bae"},"geometry":{"type":"Point","coordinates":[120.2078163987,23.034106151006]}},{"type":"Feature","properties":{"name":"\u4fdd\u751f\u5bae"},"geometry":{"type":"Point","coordinates":[120.25836487142,23.026633189234]}},{"type":"Feature","properties":{"name":"\u7d2b\u9f8d\u5bae"},"geometry":{"type":"Point","coordinates":[120.24482130686,23.003892570516]}},{"type":"Feature","properties":{"name":"\u5927\u6f6d\u662d\u5fb7\u5bae"},"geometry":{"type":"Point","coordinates":[120.27082908016,22.909868704752]}},{"type":"Feature","properties":{"name":"\u6c60\u738b\u5bae"},"geometry":{"type":"Point","coordinates":[120.18254995029,23.154822881321]}},{"type":"Feature","properties":{"name":"\u6aba\u6797\u5bae\u5171\u5584\u5802"},"geometry":{"type":"Point","coordinates":[120.19021507128,23.001643996996]}},{"type":"Feature","properties":{"name":"\u6176\u5b89\u5bae"},"geometry":{"type":"Point","coordinates":[120.2146225038,23.007980188767]}},{"type":"Feature","properties":{"name":"\u81e8\u6c34\u5bae"},"geometry":{"type":"Point","coordinates":[120.21277180296,22.980408099732]}},{"type":"Feature","properties":{"name":"\u5929\u548c\u6bbf"},"geometry":{"type":"Point","coordinates":[120.2126276525,22.986567577482]}},{"type":"Feature","properties":{"name":"\u5c0f\u5d19\u9cf3\u5c71\u5bfa"},"geometry":{"type":"Point","coordinates":[120.48916430346,23.046844694123]}},{"type":"Feature","properties":{"name":"\u4ed9\u8349\u9f8d\u5b89\u5e9c"},"geometry":{"type":"Point","coordinates":[120.47586752229,23.345255558775]}},{"type":"Feature","properties":{"name":"\u4e8c\u91cd\u6eaa\u9f8d\u5c71\u5bfa"},"geometry":{"type":"Point","coordinates":[120.40368466972,23.273249720164]}},{"type":"Feature","properties":{"name":"\u4e5d\u8089\u5317\u6975\u6bbf"},"geometry":{"type":"Point","coordinates":[120.26804044511,22.959088416516]}},{"type":"Feature","properties":{"name":"\u9f8d\u864e\u5bfa"},"geometry":{"type":"Point","coordinates":[120.21360149379,23.016321849561]}},{"type":"Feature","properties":{"name":"\u7fa9\u5584\u5802"},"geometry":{"type":"Point","coordinates":[120.390855759,23.266153294955]}},{"type":"Feature","properties":{"name":"\u5bf6\u5b89\u5bae"},"geometry":{"type":"Point","coordinates":[120.41242694317,23.369467520658]}},{"type":"Feature","properties":{"name":"\u5c0f\u5d19\u795e\u738b\u5bae"},"geometry":{"type":"Point","coordinates":[120.48972225607,23.050784214952]}},{"type":"Feature","properties":{"name":"\u666e\u9640\u5c71\u767d\u8863\u9053\u5834(\u539f\u666e\u9640\u5c71\u78a7\u96f2\u5ca9)"},"geometry":{"type":"Point","coordinates":[120.47529823255,23.022128152804]}},{"type":"Feature","properties":{"name":"\u4fdd\u751f\u5bae"},"geometry":{"type":"Point","coordinates":[120.25041210701,22.908042395636]}},{"type":"Feature","properties":{"name":"\u91d1\u5b89\u5bae"},"geometry":{"type":"Point","coordinates":[120.2233454067,23.07959042798]}},{"type":"Feature","properties":{"name":"\u592a\u5b50\u58c7"},"geometry":{"type":"Point","coordinates":[120.37487806121,23.370727784709]}},{"type":"Feature","properties":{"name":"\u7389\u52c5\u9707\u9748\u6bbf"},"geometry":{"type":"Point","coordinates":[120.17108472588,22.960611598208]}},{"type":"Feature","properties":{"name":"\u793e\u5b50\u93ae\u5b89\u5bae"},"geometry":{"type":"Point","coordinates":[120.35958857573,23.182122627418]}},{"type":"Feature","properties":{"name":"\u6148\u8056\u6bbf"},"geometry":{"type":"Point","coordinates":[120.1992910738,22.998510818084]}},{"type":"Feature","properties":{"name":"\u8056\u738b\u5bae"},"geometry":{"type":"Point","coordinates":[120.24624368852,23.186384422136]}},{"type":"Feature","properties":{"name":"\u5e73\u5b89\u5bae"},"geometry":{"type":"Point","coordinates":[120.24824793471,23.186491079376]}},{"type":"Feature","properties":{"name":"\u5171\u738b\u5edf"},"geometry":{"type":"Point","coordinates":[120.17799932172,23.131403118549]}},{"type":"Feature","properties":{"name":"\u9e7f\u9676\u958b\u57fa\u5317\u6975\u6bbf"},"geometry":{"type":"Point","coordinates":[120.47950012863,23.138467658355]}},{"type":"Feature","properties":{"name":"\u725b\u7a20\u4ed4\u4fdd\u83ef\u5bae"},"geometry":{"type":"Point","coordinates":[120.22681132599,22.958864342266]}},{"type":"Feature","properties":{"name":"\u5de6\u93ae\u5e1d\u738b\u5bae"},"geometry":{"type":"Point","coordinates":[120.40876712481,23.045991131286]}},{"type":"Feature","properties":{"name":"\u7389\u7aa9\u5bfa"},"geometry":{"type":"Point","coordinates":[120.40781594096,23.010498678991]}},{"type":"Feature","properties":{"name":"\u7d2b\u96f2\u79aa\u5bfa"},"geometry":{"type":"Point","coordinates":[120.42282578461,23.07546908538]}},{"type":"Feature","properties":{"name":"\u5927\u4f5b\u5bfa"},"geometry":{"type":"Point","coordinates":[120.43271045093,23.089424966421]}},{"type":"Feature","properties":{"name":"\u5927\u7063\u5357\u5de1\u5bae"},"geometry":{"type":"Point","coordinates":[120.26595523641,23.000405678609]}},{"type":"Feature","properties":{"name":"\u5f4c\u9640\u5bfa"},"geometry":{"type":"Point","coordinates":[120.21446642992,22.988492902992]}},{"type":"Feature","properties":{"name":"\u5357\u5929\u5bae"},"geometry":{"type":"Point","coordinates":[120.17512876682,23.066710542123]}},{"type":"Feature","properties":{"name":"\u6587\u6b8a\u5712\u6de8\u73cd\u7cbe\u820d"},"geometry":{"type":"Point","coordinates":[120.12429741537,23.075385026905]}},{"type":"Feature","properties":{"name":"\u592a\u5b50\u5edf"},"geometry":{"type":"Point","coordinates":[120.46093694978,23.122375848949]}},{"type":"Feature","properties":{"name":"\u5929\u540e\u5bae"},"geometry":{"type":"Point","coordinates":[120.39648659649,23.037637102223]}},{"type":"Feature","properties":{"name":"\u4e00\u5143\u5bae"},"geometry":{"type":"Point","coordinates":[120.37242525903,23.061762474941]}},{"type":"Feature","properties":{"name":"\u6176\u6fdf\u5bae"},"geometry":{"type":"Point","coordinates":[120.3167438703,23.156675754292]}},{"type":"Feature","properties":{"name":"\u6b63\u5999\u5bfa"},"geometry":{"type":"Point","coordinates":[120.21303196234,22.993782419928]}},{"type":"Feature","properties":{"name":"\u9f8d\u5c71\u5bfa"},"geometry":{"type":"Point","coordinates":[120.40401427429,23.162463870628]}},{"type":"Feature","properties":{"name":"\u4f73\u798f\u5bfa"},"geometry":{"type":"Point","coordinates":[120.19538057346,23.200810229854]}},{"type":"Feature","properties":{"name":"\u9748\u5c71\u5bfa"},"geometry":{"type":"Point","coordinates":[120.43368897052,23.400384878496]}},{"type":"Feature","properties":{"name":"\u5317\u5b89\u5bae"},"geometry":{"type":"Point","coordinates":[120.40979364492,22.973264197225]}},{"type":"Feature","properties":{"name":"\u6148\u9748\u5bae"},"geometry":{"type":"Point","coordinates":[120.22753303893,23.032529193872]}},{"type":"Feature","properties":{"name":"\u4e2d\u8208\u58c7"},"geometry":{"type":"Point","coordinates":[120.27514274591,23.018166911061]}},{"type":"Feature","properties":{"name":"\u93ae\u897f\u5bae"},"geometry":{"type":"Point","coordinates":[120.16134876096,23.157918518787]}},{"type":"Feature","properties":{"name":"\u7384\u5929\u4e0a\u5e1d\u5edf"},"geometry":{"type":"Point","coordinates":[120.35302095628,23.333006658508]}},{"type":"Feature","properties":{"name":"\u842c\u5e74\u5929\u96f2\u6bbf"},"geometry":{"type":"Point","coordinates":[120.17621115558,22.939386073897]}},{"type":"Feature","properties":{"name":"\u7701\u8eac\u793e\u8056\u5316\u5802"},"geometry":{"type":"Point","coordinates":[120.17995448491,22.929591099317]}},{"type":"Feature","properties":{"name":"\u9f8d\u5c71\u6bbf"},"geometry":{"type":"Point","coordinates":[120.21737005761,22.985831544357]}},{"type":"Feature","properties":{"name":"\u4e94\u5e1d\u5edf"},"geometry":{"type":"Point","coordinates":[120.20282806065,22.992740886893]}},{"type":"Feature","properties":{"name":"\u6771\u5b89\u5bae"},"geometry":{"type":"Point","coordinates":[120.49920914525,23.074744719099]}},{"type":"Feature","properties":{"name":"\u548c\u52dd\u5802"},"geometry":{"type":"Point","coordinates":[120.19916298332,22.999373720991]}},{"type":"Feature","properties":{"name":"\u5357\u6c99\u5d17\u516d\u59d3\u5e9c"},"geometry":{"type":"Point","coordinates":[120.19780960934,22.997606838874]}},{"type":"Feature","properties":{"name":"\u6069\u968d\u5bae\u5929\u4e0b\u90fd\u57ce\u968d\u5edf"},"geometry":{"type":"Point","coordinates":[120.22374939152,23.003846763346]}},{"type":"Feature","properties":{"name":"\u5927\u897f\u5929\u4f5b\u5bfa"},"geometry":{"type":"Point","coordinates":[120.30966364178,23.001197311526]}},{"type":"Feature","properties":{"name":"\u6b66\u8ce2\u5bae"},"geometry":{"type":"Point","coordinates":[120.29407493532,23.299466910892]}},{"type":"Feature","properties":{"name":"\u5b85\u4ed4\u5167\u8208\u6fdf\u5bae"},"geometry":{"type":"Point","coordinates":[120.46195973925,23.122677160782]}},{"type":"Feature","properties":{"name":"\u570b\u8056\u5bae"},"geometry":{"type":"Point","coordinates":[120.26948243169,23.009338965365]}},{"type":"Feature","properties":{"name":"\u4e03\u7532\u9f8d\u6e56\u4ee3\u5929\u5e9c"},"geometry":{"type":"Point","coordinates":[120.34660631844,23.222112618979]}},{"type":"Feature","properties":{"name":"\u4e94\u7532\u9f8d\u51f0\u5bfa"},"geometry":{"type":"Point","coordinates":[120.35096692069,23.227003401228]}},{"type":"Feature","properties":{"name":"\u798f\u5b89\u5bfa"},"geometry":{"type":"Point","coordinates":[120.35867761946,23.332351868442]}},{"type":"Feature","properties":{"name":"\u69ae\u5b89\u5bae"},"geometry":{"type":"Point","coordinates":[120.29379849439,23.064733527425]}},{"type":"Feature","properties":{"name":"\u6771\u52e2\u5317\u6975\u6bbf"},"geometry":{"type":"Point","coordinates":[120.32150052362,23.09168136671]}},{"type":"Feature","properties":{"name":"\u6176\u8208\u6bbf"},"geometry":{"type":"Point","coordinates":[120.19099339648,23.011277221835]}},{"type":"Feature","properties":{"name":"\u5fe0\u5b89\u5bae"},"geometry":{"type":"Point","coordinates":[120.22329942047,23.011701779047]}},{"type":"Feature","properties":{"name":"\u592a\u57ce\u5bae"},"geometry":{"type":"Point","coordinates":[120.43799219552,23.398052254746]}},{"type":"Feature","properties":{"name":"\u4ec1\u539a\u5bae"},"geometry":{"type":"Point","coordinates":[120.24346860102,23.186324694613]}},{"type":"Feature","properties":{"name":"\u7cd6\u5b89\u5bae"},"geometry":{"type":"Point","coordinates":[120.20657555057,23.00203680777]}},{"type":"Feature","properties":{"name":"\u6e05\u5b89\u5bae"},"geometry":{"type":"Point","coordinates":[120.26378464099,22.993705114937]}},{"type":"Feature","properties":{"name":"\u592a\u5b50\u5bae"},"geometry":{"type":"Point","coordinates":[120.19289471909,23.012152370226]}},{"type":"Feature","properties":{"name":"\u534a\u5e73\u6a4b\u5143\u5e25\u5bae"},"geometry":{"type":"Point","coordinates":[120.45358467222,23.059558397285]}},{"type":"Feature","properties":{"name":"\u60e0\u5b89\u5bae"},"geometry":{"type":"Point","coordinates":[120.29619406402,23.187416567559]}},{"type":"Feature","properties":{"name":"\u548c\u5b89\u5bae"},"geometry":{"type":"Point","coordinates":[120.30127918111,23.34255376216]}},{"type":"Feature","properties":{"name":"\u5927\u8208\u5bae"},"geometry":{"type":"Point","coordinates":[120.18707368764,23.010972877353]}},{"type":"Feature","properties":{"name":"\u897f\u5fb7\u5802"},"geometry":{"type":"Point","coordinates":[120.1948343548,23.000064612899]}},{"type":"Feature","properties":{"name":"\u8ca1\u5718\u6cd5\u4eba\u53f0\u7063\u7701\u53f0\u5357\u5e02\u6c34\u9580\u5bae"},"geometry":{"type":"Point","coordinates":[120.18468246,22.984447034274]}},{"type":"Feature","properties":{"name":"\u6fdf\u798f\u5bae"},"geometry":{"type":"Point","coordinates":[120.19333000372,22.995296011542]}},{"type":"Feature","properties":{"name":"\u6148\u6069\u7cbe\u820d"},"geometry":{"type":"Point","coordinates":[120.37805376367,22.989235002778]}},{"type":"Feature","properties":{"name":"\u4e8c\u884c\u516c\u5802"},"geometry":{"type":"Point","coordinates":[120.22161068444,22.915896035501]}},{"type":"Feature","properties":{"name":"\u4e5d\u83ef\u5c71\u8b77\u570b\u5730\u85cf\u79aa\u5bfa"},"geometry":{"type":"Point","coordinates":[120.176503761,22.990179040561]}},{"type":"Feature","properties":{"name":"\u7530\u5e9c\u5143\u5e25\u58c7(\u5df2\u5ee2\u6b62)"},"geometry":{"type":"Point","coordinates":[120.35837565287,22.976887097636]}},{"type":"Feature","properties":{"name":"\u5357\u5929\u5e9c"},"geometry":{"type":"Point","coordinates":[120.22822407948,22.98823759266]}},{"type":"Feature","properties":{"name":"\u93ae\u8f45\u5883"},"geometry":{"type":"Point","coordinates":[120.20735489016,23.000807374893]}},{"type":"Feature","properties":{"name":"\u5bc6\u56b4\u5c71\u5fc3\u738b\u5bfa"},"geometry":{"type":"Point","coordinates":[120.48389308309,23.127230037842]}},{"type":"Feature","properties":{"name":"\u5357\u5ca9\u8d85\u5cef\u5bfa"},"geometry":{"type":"Point","coordinates":[120.18166050058,22.922578941067]}},{"type":"Feature","properties":{"name":"\u5357\u5ee0\u842c\u9748\u7960"},"geometry":{"type":"Point","coordinates":[120.19192241687,22.990313333472]}},{"type":"Feature","properties":{"name":"\u5713\u6cd5\u5bfa"},"geometry":{"type":"Point","coordinates":[120.39101250339,22.975071940789]}},{"type":"Feature","properties":{"name":"\u93ae\u5c71\u5bae"},"geometry":{"type":"Point","coordinates":[120.18512459733,23.15049616348]}},{"type":"Feature","properties":{"name":"\u5929\u7687\u5bae"},"geometry":{"type":"Point","coordinates":[120.47198652435,23.280789274805]}},{"type":"Feature","properties":{"name":"\u4fdd\u6fdf\u5bfa"},"geometry":{"type":"Point","coordinates":[120.25680074994,23.193595225399]}},{"type":"Feature","properties":{"name":"\u5167\u5e84\u4fdd\u4e2d\u5bae"},"geometry":{"type":"Point","coordinates":[120.42112383275,23.03943564654]}},{"type":"Feature","properties":{"name":"\u53f0\u5357\u5f8c\u7532\u5317\u6975\u6bbf"},"geometry":{"type":"Point","coordinates":[120.23418910077,22.990781260575]}},{"type":"Feature","properties":{"name":"\u5c71\u897f\u6b66\u8056\u5bae"},"geometry":{"type":"Point","coordinates":[120.23640627873,22.989415039018]}},{"type":"Feature","properties":{"name":"\u5676\u746a\u5676\u5c45\u5bfa"},"geometry":{"type":"Point","coordinates":[120.39895641034,23.053214989059]}},{"type":"Feature","properties":{"name":"\u958b\u57fa\u9748\u7950\u5bae"},"geometry":{"type":"Point","coordinates":[120.20359228011,22.997670703655]}},{"type":"Feature","properties":{"name":"\u91d1\u9f8d\u5bae"},"geometry":{"type":"Point","coordinates":[120.17314941808,22.993817130778]}},{"type":"Feature","properties":{"name":"\u59d1\u723a\u4ee3\u5929\u5e9c"},"geometry":{"type":"Point","coordinates":[120.2554818257,23.279370418479]}},{"type":"Feature","properties":{"name":"\u6148\u5149\u7cbe\u820d"},"geometry":{"type":"Point","coordinates":[120.18095644014,23.014473826322]}},{"type":"Feature","properties":{"name":"\u592a\u5b89\u5bae"},"geometry":{"type":"Point","coordinates":[120.39309028883,22.943654018783]}},{"type":"Feature","properties":{"name":"\u9f8d\u97f3\u5bfa"},"geometry":{"type":"Point","coordinates":[120.52931928664,23.151179891667]}},{"type":"Feature","properties":{"name":"\u5357\u5584\u5802"},"geometry":{"type":"Point","coordinates":[120.21434230124,22.984878689248]}},{"type":"Feature","properties":{"name":"\u5357\u9c32\u6148\u60e0\u5802"},"geometry":{"type":"Point","coordinates":[120.21247702682,22.983360220189]}},{"type":"Feature","properties":{"name":"\u7121\u6975\u5929\u6bcd\u5bae"},"geometry":{"type":"Point","coordinates":[120.41745446867,22.935319440371]}},{"type":"Feature","properties":{"name":"\u6148\u84ee\u5bfa"},"geometry":{"type":"Point","coordinates":[120.40265229226,23.010379948166]}},{"type":"Feature","properties":{"name":"\u6148\u7af9\u5bfa"},"geometry":{"type":"Point","coordinates":[120.47659193631,23.307677766049]}},{"type":"Feature","properties":{"name":"\u6e2f\u8208\u5bae"},"geometry":{"type":"Point","coordinates":[120.15981540086,23.136516094074]}},{"type":"Feature","properties":{"name":"\u798f\u6069\u5bae"},"geometry":{"type":"Point","coordinates":[120.41808751832,23.053744306554]}},{"type":"Feature","properties":{"name":"\u5168\u53f0\u958b\u57fa\u85e5\u738b\u5edf"},"geometry":{"type":"Point","coordinates":[120.19490476827,22.998306897898]}},{"type":"Feature","properties":{"name":"\u7389\u52c5\u9752\u9f8d\u5bae"},"geometry":{"type":"Point","coordinates":[120.17904995533,23.156854023725]}},{"type":"Feature","properties":{"name":"\u6b63\u5fb7\u5802"},"geometry":{"type":"Point","coordinates":[120.19559099069,22.994204479759]}},{"type":"Feature","properties":{"name":"\u5ca9\u6643\u5bfa"},"geometry":{"type":"Point","coordinates":[120.38371728081,23.004599739356]}},{"type":"Feature","properties":{"name":"\u5ee3\u56b4\u5bfa"},"geometry":{"type":"Point","coordinates":[120.36924668559,22.991530473714]}},{"type":"Feature","properties":{"name":"\u81e8\u6c34\u592b\u4eba\u5abd\u5edf"},"geometry":{"type":"Point","coordinates":[120.20706180052,22.988225932077]}},{"type":"Feature","properties":{"name":"\u5c0f\u5357\u5929"},"geometry":{"type":"Point","coordinates":[120.20513576255,22.995679329654]}},{"type":"Feature","properties":{"name":"\u666e\u6cd5\u9053\u6fdf\u5bfa"},"geometry":{"type":"Point","coordinates":[120.16473770184,23.043992061361]}},{"type":"Feature","properties":{"name":"\u4ed9\u59d1\u5bfa"},"geometry":{"type":"Point","coordinates":[120.42160460121,23.062431738775]}},{"type":"Feature","properties":{"name":"\u4e09\u5143\u5bae"},"geometry":{"type":"Point","coordinates":[120.18005674348,23.008803247106]}},{"type":"Feature","properties":{"name":"\u8ca1\u5718\u6cd5\u4eba\u53f0\u7063\u7701\u53f0\u5357\u5e02\u9999\u5149\u8056\u5802"},"geometry":{"type":"Point","coordinates":[120.21283632398,23.052745930087]}},{"type":"Feature","properties":{"name":"\u5fb7\u99a8\u5bae"},"geometry":{"type":"Point","coordinates":[120.33666210863,23.377892489171]}},{"type":"Feature","properties":{"name":"\u4fdd\u5c71\u5bae"},"geometry":{"type":"Point","coordinates":[120.20642610354,23.040946428874]}},{"type":"Feature","properties":{"name":"\u666f\u5b89\u5bae"},"geometry":{"type":"Point","coordinates":[120.33592974117,22.963652681473]}},{"type":"Feature","properties":{"name":"\u9748\u5c71\u5bfa"},"geometry":{"type":"Point","coordinates":[120.31531032461,22.995997955122]}},{"type":"Feature","properties":{"name":"\u798f\u5fb7\u5bae"},"geometry":{"type":"Point","coordinates":[120.21587620931,23.02885050541]}},{"type":"Feature","properties":{"name":"\u5929\u4e09\u5bae"},"geometry":{"type":"Point","coordinates":[120.38976697217,23.373917974523]}},{"type":"Feature","properties":{"name":"\u8ca1\u5718\u6cd5\u4eba\u81fa\u5357\u5e02\u81fa\u7586\u7956\u5edf\u5927\u89c0\u97f3\u4ead\u66a8\u7940\u5178\u8208\u6fdf\u5bae"},"geometry":{"type":"Point","coordinates":[120.2112167306,22.997651296806]}},{"type":"Feature","properties":{"name":"\u52dd\u548c\u5bae"},"geometry":{"type":"Point","coordinates":[120.21748225251,22.995863700997]}},{"type":"Feature","properties":{"name":"\u5ef6\u5e73\u9cf3\u5c71\u5bae"},"geometry":{"type":"Point","coordinates":[120.21222253433,23.014310576835]}},{"type":"Feature","properties":{"name":"\u826f\u5929\u5bae"},"geometry":{"type":"Point","coordinates":[120.41727357354,23.338191428874]}},{"type":"Feature","properties":{"name":"\u666e\u6fdf\u5bae"},"geometry":{"type":"Point","coordinates":[120.32772490095,23.272699390577]}},{"type":"Feature","properties":{"name":"\u6e05\u6c34\u5bae"},"geometry":{"type":"Point","coordinates":[120.28320358797,22.970791922829]}},{"type":"Feature","properties":{"name":"\u5bf6\u5149\u7d39\u8208\u5f18\u5fb7\u8b1b\u5802"},"geometry":{"type":"Point","coordinates":[120.33804309217,23.379788927016]}},{"type":"Feature","properties":{"name":"\u6a4b\u982d\u73e0\u60e0\u5bae"},"geometry":{"type":"Point","coordinates":[120.42822129042,23.3861337307]}},{"type":"Feature","properties":{"name":"\u8ca1\u5718\u6cd5\u4eba\u937e\u5e9c\u5b97\u7960"},"geometry":{"type":"Point","coordinates":[120.25769127682,22.969767077033]}},{"type":"Feature","properties":{"name":"\u5fb7\u9ad8\u539d\u4e0a\u5e1d\u5edf"},"geometry":{"type":"Point","coordinates":[120.2351231107,22.965883104263]}},{"type":"Feature","properties":{"name":"\u9f8d\u9cf3\u5bfa"},"geometry":{"type":"Point","coordinates":[120.3082613243,23.239480541868]}},{"type":"Feature","properties":{"name":"\u9748\u6cc9\u5bfa"},"geometry":{"type":"Point","coordinates":[120.47460906925,23.028267019296]}},{"type":"Feature","properties":{"name":"\u91d1\u5e1d\u5edf"},"geometry":{"type":"Point","coordinates":[120.43635080636,23.383326110697]}},{"type":"Feature","properties":{"name":"\u5713\u6148\u79aa\u5bfa"},"geometry":{"type":"Point","coordinates":[120.38387541122,23.098895338074]}},{"type":"Feature","properties":{"name":"\u6cd5\u738b\u8b1b\u5802"},"geometry":{"type":"Point","coordinates":[120.24167543014,23.037094622982]}},{"type":"Feature","properties":{"name":"\u958b\u5143\u5bfa"},"geometry":{"type":"Point","coordinates":[120.22281420077,23.011871873658]}},{"type":"Feature","properties":{"name":"\u5999\u56b4\u5bfa"},"geometry":{"type":"Point","coordinates":[120.33863334484,22.971074991663]}},{"type":"Feature","properties":{"name":"\u4ee3\u5929\u5e9c"},"geometry":{"type":"Point","coordinates":[120.20818355023,23.06239254658]}},{"type":"Feature","properties":{"name":"\u8ca1\u5718\u6cd5\u4eba\u53f0\u7063\u7701\u53f0\u5357\u7e23\u5149\u89bd\u7956\u7cfb\u5433\u6c0f\u5b97\u7960"},"geometry":{"type":"Point","coordinates":[120.16082369248,23.259580364363]}},{"type":"Feature","properties":{"name":"\u65b0\u5b85\u6fdf\u798f\u5bfa\u666f\u5fb7\u7960"},"geometry":{"type":"Point","coordinates":[120.2112417249,23.05345479068]}},{"type":"Feature","properties":{"name":"\u6975\u6a02\u5bfa"},"geometry":{"type":"Point","coordinates":[120.17377400987,22.984540886181]}},{"type":"Feature","properties":{"name":"\u5e73\u5b89\u93ae\u5b89\u5802"},"geometry":{"type":"Point","coordinates":[120.33360908532,23.36389699793]}},{"type":"Feature","properties":{"name":"\u91d1\u947e\u5bae"},"geometry":{"type":"Point","coordinates":[120.18639975293,22.978182816005]}},{"type":"Feature","properties":{"name":"\u4fdd\u5b89\u5bae"},"geometry":{"type":"Point","coordinates":[120.20799892851,23.123810448745]}},{"type":"Feature","properties":{"name":"\u7389\u7687\u5bae"},"geometry":{"type":"Point","coordinates":[120.18685205217,23.234807098986]}},{"type":"Feature","properties":{"name":"\u666e\u5eb5\u5bfa"},"geometry":{"type":"Point","coordinates":[120.24978880786,23.18503728882]}},{"type":"Feature","properties":{"name":"\u4e94\u53f0\u5c71\u958b\u660e\u5bfa"},"geometry":{"type":"Point","coordinates":[120.45323718134,23.151472408852]}},{"type":"Feature","properties":{"name":"\u4fe1\u548c\u79aa\u5bfa"},"geometry":{"type":"Point","coordinates":[120.20236379804,23.121482566589]}},{"type":"Feature","properties":{"name":"\u8ca1\u5718\u6cd5\u4eba\u8ca2\u5676\u5bfa"},"geometry":{"type":"Point","coordinates":[120.15898720995,22.991933676807]}},{"type":"Feature","properties":{"name":"\u5317\u6975\u6bbf\u666e\u6fdf\u5bfa"},"geometry":{"type":"Point","coordinates":[120.24955773048,23.184437137977]}},{"type":"Feature","properties":{"name":"\u91d1\u5510\u6bbf"},"geometry":{"type":"Point","coordinates":[120.17655044823,23.16118553919]}},{"type":"Feature","properties":{"name":"\u6167\u6148\u5bfa"},"geometry":{"type":"Point","coordinates":[120.29037826044,23.128383070042]}},{"type":"Feature","properties":{"name":"\u4ee3\u4f5b\u5bfa"},"geometry":{"type":"Point","coordinates":[120.40795672442,23.008773949684]}},{"type":"Feature","properties":{"name":"\u4e09\u5b98\u5927\u5e1d\u5edf"},"geometry":{"type":"Point","coordinates":[120.41948491819,23.051866533665]}},{"type":"Feature","properties":{"name":"\u592a\u5b50\u723a\u5edf"},"geometry":{"type":"Point","coordinates":[120.27429416802,23.295050847712]}},{"type":"Feature","properties":{"name":"\u9be4\u5b89\u5bae"},"geometry":{"type":"Point","coordinates":[120.16972654748,22.962177810976]}},{"type":"Feature","properties":{"name":"\u6148\u96f2\u7384\u8056\u5bae"},"geometry":{"type":"Point","coordinates":[120.26210567296,23.004817921654]}},{"type":"Feature","properties":{"name":"\u4f0d\u4f5b\u5802"},"geometry":{"type":"Point","coordinates":[120.21318470385,22.984354975918]}},{"type":"Feature","properties":{"name":"\u767b\u5929\u5bae"},"geometry":{"type":"Point","coordinates":[120.18349496165,23.152822686665]}},{"type":"Feature","properties":{"name":"\u5168\u53f0\u767d\u9f8d\u5eb5\u5b89\u6176\u5802\u4e94\u761f\u5bae"},"geometry":{"type":"Point","coordinates":[120.19968009339,22.992169120726]}},{"type":"Feature","properties":{"name":"\u6148\u852d\u4ead"},"geometry":{"type":"Point","coordinates":[120.20098169523,22.994875970354]}},{"type":"Feature","properties":{"name":"\u5584\u5fb7\u5bfa"},"geometry":{"type":"Point","coordinates":[120.36283108024,22.909583163349]}},{"type":"Feature","properties":{"name":"\u6148\u5abd\u5bae"},"geometry":{"type":"Point","coordinates":[120.39847535006,23.008512907311]}},{"type":"Feature","properties":{"name":"\u51cc\u9704\u5bf6\u6bbf"},"geometry":{"type":"Point","coordinates":[120.18821060163,23.005907952031]}},{"type":"Feature","properties":{"name":"\u4e2d\u8ecd\u5e9c"},"geometry":{"type":"Point","coordinates":[120.25512189837,23.327655352098]}},{"type":"Feature","properties":{"name":"\u6597\u516d\u4ee3\u5929\u5e9c"},"geometry":{"type":"Point","coordinates":[120.4722225394,23.148845564121]}},{"type":"Feature","properties":{"name":"\u6a3a\u6797\u5712\u6148\u555f\u5bfa"},"geometry":{"type":"Point","coordinates":[120.45190346214,23.104762958905]}},{"type":"Feature","properties":{"name":"\u6e05\u6c34\u5bae"},"geometry":{"type":"Point","coordinates":[120.48824660609,23.037585528984]}},{"type":"Feature","properties":{"name":"\u798f\u5b89\u5bae"},"geometry":{"type":"Point","coordinates":[120.27439981717,23.027398065614]}},{"type":"Feature","properties":{"name":"\u4ec1\u539a\u5883\u798f\u5fb7\u7960"},"geometry":{"type":"Point","coordinates":[120.20922915465,22.988352349408]}},{"type":"Feature","properties":{"name":"\u7956\u5e2b\u516c\u5edf"},"geometry":{"type":"Point","coordinates":[120.21415263496,22.987991708459]}},{"type":"Feature","properties":{"name":"\u5999\u6cd5\u79aa\u5bfa"},"geometry":{"type":"Point","coordinates":[120.32562938538,22.969150138591]}},{"type":"Feature","properties":{"name":"\u5929\u7384\u5bae"},"geometry":{"type":"Point","coordinates":[120.19587170921,23.183199253473]}},{"type":"Feature","properties":{"name":"\u53f0\u5357\u5e02\u5869\u57d5\u93ae\u6d77\u5bae"},"geometry":{"type":"Point","coordinates":[120.19269430532,22.963062783147]}},{"type":"Feature","properties":{"name":"\u671d\u8208\u6eab\u9675\u5edf"},"geometry":{"type":"Point","coordinates":[120.19031689235,22.99811419751]}},{"type":"Feature","properties":{"name":"\u5982\u4f86\u5cf0\u5bfa"},"geometry":{"type":"Point","coordinates":[120.36685909488,23.05918470675]}},{"type":"Feature","properties":{"name":"\u5fb7\u5316\u5802"},"geometry":{"type":"Point","coordinates":[120.20613160677,22.98917865009]}},{"type":"Feature","properties":{"name":"\u798f\u5fb7\u7960"},"geometry":{"type":"Point","coordinates":[120.25560949305,23.04363353318]}},{"type":"Feature","properties":{"name":"\u6148\u97f3\u5bfa"},"geometry":{"type":"Point","coordinates":[120.18532580739,22.959090667998]}},{"type":"Feature","properties":{"name":"\u904a\u6d77\u5e9c"},"geometry":{"type":"Point","coordinates":[120.17575961388,22.942556093128]}},{"type":"Feature","properties":{"name":"\u95dc\u5e1d\u723a\u5edf"},"geometry":{"type":"Point","coordinates":[120.45464030609,23.111598915757]}},{"type":"Feature","properties":{"name":"\u72e9\u5357\u5bae"},"geometry":{"type":"Point","coordinates":[120.18483596817,22.920367617033]}},{"type":"Feature","properties":{"name":"\u6d77\u53e3\u5bae"},"geometry":{"type":"Point","coordinates":[120.17746446311,22.930557178267]}},{"type":"Feature","properties":{"name":"\u7de3\u751f\u7cbe\u820d"},"geometry":{"type":"Point","coordinates":[120.33017498854,22.968658380137]}},{"type":"Feature","properties":{"name":"\u4e2d\u58c7\u5e9c"},"geometry":{"type":"Point","coordinates":[120.33346217573,23.288173183743]}},{"type":"Feature","properties":{"name":"\u6210\u6b63\u5edf"},"geometry":{"type":"Point","coordinates":[120.43316333545,23.390375860491]}},{"type":"Feature","properties":{"name":"\u5927\u7532\u6148\u6fdf\u5bae"},"geometry":{"type":"Point","coordinates":[120.21266728563,22.918368772223]}},{"type":"Feature","properties":{"name":"\u6148\u96f2\u5bfa"},"geometry":{"type":"Point","coordinates":[120.21482496978,23.015471686254]}},{"type":"Feature","properties":{"name":"\u6de8\u548c\u5bfa"},"geometry":{"type":"Point","coordinates":[120.30943942553,22.992157021948]}},{"type":"Feature","properties":{"name":"\u56db\u5b89\u5bae"},"geometry":{"type":"Point","coordinates":[120.17783266187,23.156376856739]}},{"type":"Feature","properties":{"name":"\u9f8d\u9cf3\u5bae"},"geometry":{"type":"Point","coordinates":[120.25076362406,23.187475332757]}},{"type":"Feature","properties":{"name":"\u71df\u982d\u798f\u5fb7\u723a\u5edf"},"geometry":{"type":"Point","coordinates":[120.31112122133,23.102285255839]}},{"type":"Feature","properties":{"name":"\u912d\u5b50\u5bee\u798f\u5b89\u5bae"},"geometry":{"type":"Point","coordinates":[120.20656251146,23.020646191385]}},{"type":"Feature","properties":{"name":"\u6eaa\u5fc3\u5bee\u4fdd\u5b89\u5802"},"geometry":{"type":"Point","coordinates":[120.18921283687,23.058041235404]}},{"type":"Feature","properties":{"name":"\u6587\u6b8a\u5712\u6de8\u73cd\u7cbe\u820d"},"geometry":{"type":"Point","coordinates":[120.12429741537,23.075385026905]}},{"type":"Feature","properties":{"name":"\u7e3d\u797f\u5883"},"geometry":{"type":"Point","coordinates":[120.2052275729,22.999523736853]}},{"type":"Feature","properties":{"name":"\u6587\u6b66\u8056\u5edf"},"geometry":{"type":"Point","coordinates":[120.20007174555,23.024059359773]}},{"type":"Feature","properties":{"name":"\u958b\u57fa\u9f8d\u541b\u6bbf"},"geometry":{"type":"Point","coordinates":[120.20494820992,23.000956228908]}},{"type":"Feature","properties":{"name":"\u52dd\u5b89\u5bae"},"geometry":{"type":"Point","coordinates":[120.21692719321,23.005376023229]}},{"type":"Feature","properties":{"name":"\u4ee3\u5929\u5e9c\u93ae\u5357\u5bae"},"geometry":{"type":"Point","coordinates":[120.22375703463,23.013253144403]}},{"type":"Feature","properties":{"name":"\u5357\u5b89\u5bae"},"geometry":{"type":"Point","coordinates":[120.49047408706,23.073504278349]}},{"type":"Feature","properties":{"name":"\u7389\u5c71\u8056\u738b\u5bae"},"geometry":{"type":"Point","coordinates":[120.51417246837,23.068254582462]}},{"type":"Feature","properties":{"name":"\u57ce\u968d\u5bae"},"geometry":{"type":"Point","coordinates":[120.26479730629,23.000312985704]}},{"type":"Feature","properties":{"name":"\u9f8d\u6f6d\u5929\u58c7"},"geometry":{"type":"Point","coordinates":[120.26596262053,23.032065504881]}},{"type":"Feature","properties":{"name":"\u6e05\u8056\u5bae"},"geometry":{"type":"Point","coordinates":[120.11997073306,23.074342140372]}},{"type":"Feature","properties":{"name":"\u7389\u5c71\u96f2\u5c71\u5bfa"},"geometry":{"type":"Point","coordinates":[120.54566760127,23.068753916729]}},{"type":"Feature","properties":{"name":"\u570b\u59d3\u5edf"},"geometry":{"type":"Point","coordinates":[120.43989344546,23.381551530685]}},{"type":"Feature","properties":{"name":"\u7af9\u4ed4\u8173\u8056\u7384\u5bae"},"geometry":{"type":"Point","coordinates":[120.39966054173,23.373600293464]}},{"type":"Feature","properties":{"name":"\u5343\u773e\u723a\u5edf"},"geometry":{"type":"Point","coordinates":[120.37787965982,23.392695667334]}},{"type":"Feature","properties":{"name":"\u7389\u5c71\u9cf3\u5c71\u5bfa"},"geometry":{"type":"Point","coordinates":[120.51994618138,23.075974012728]}},{"type":"Feature","properties":{"name":"\u7389\u5c71\u6cd5\u96f2\u5bfa"},"geometry":{"type":"Point","coordinates":[120.51893146798,23.073325461873]}},{"type":"Feature","properties":{"name":"\u96d9\u9f8d\u5bae"},"geometry":{"type":"Point","coordinates":[120.30093213991,23.188707669249]}},{"type":"Feature","properties":{"name":"\u7384\u5929\u5bae"},"geometry":{"type":"Point","coordinates":[120.25225920502,22.906953439094]}},{"type":"Feature","properties":{"name":"\u4e09\u516c\u5e9c"},"geometry":{"type":"Point","coordinates":[120.36425574384,23.371111194311]}},{"type":"Feature","properties":{"name":"\u5143\u5b89\u5bae"},"geometry":{"type":"Point","coordinates":[120.24377905897,23.284520177602]}},{"type":"Feature","properties":{"name":"\u9cf3\u5b89\u5bae"},"geometry":{"type":"Point","coordinates":[120.23191163917,23.134299148247]}},{"type":"Feature","properties":{"name":"\u5927\u5149\u5bfa"},"geometry":{"type":"Point","coordinates":[120.21144552496,22.968185315458]}},{"type":"Feature","properties":{"name":"\u592a\u5b89\u5bae"},"geometry":{"type":"Point","coordinates":[120.30242640357,23.344366388048]}},{"type":"Feature","properties":{"name":"\u4e09\u8056\u5802"},"geometry":{"type":"Point","coordinates":[120.19720820768,23.001572501489]}},{"type":"Feature","properties":{"name":"\u5143\u548c\u5bae"},"geometry":{"type":"Point","coordinates":[120.20695581202,23.001229612687]}},{"type":"Feature","properties":{"name":"\u91d1\u5c71\u5bfa"},"geometry":{"type":"Point","coordinates":[120.49227391245,23.072700225355]}},{"type":"Feature","properties":{"name":"\u5c0f\u5d19\u767d\u5c71\u5bfa"},"geometry":{"type":"Point","coordinates":[120.47792926973,23.050119729433]}},{"type":"Feature","properties":{"name":"\u5929\u6708\u5bae"},"geometry":{"type":"Point","coordinates":[120.2452421491,23.291546136669]}},{"type":"Feature","properties":{"name":"\u9748\u5c71\u4e5d\u5929\u5bae"},"geometry":{"type":"Point","coordinates":[120.46222192563,23.053212378088]}},{"type":"Feature","properties":{"name":"\u901a\u7384\u5927\u83e9\u85a9\u9662"},"geometry":{"type":"Point","coordinates":[120.20663227766,23.080766430104]}},{"type":"Feature","properties":{"name":"\u901a\u7384\u5927\u83e9\u85a9\u9662"},"geometry":{"type":"Point","coordinates":[120.20663227766,23.080766430104]}},{"type":"Feature","properties":{"name":"\u4e09\u5b98\u5927\u5e1d\u5edf"},"geometry":{"type":"Point","coordinates":[120.4554568959,23.086813995939]}},{"type":"Feature","properties":{"name":"\u795e\u8fb2\u5edf"},"geometry":{"type":"Point","coordinates":[120.4834133667,23.100522738806]}},{"type":"Feature","properties":{"name":"\u6df1\u5751\u5c71\u897f\u5bae"},"geometry":{"type":"Point","coordinates":[120.33450789637,22.938261522675]}},{"type":"Feature","properties":{"name":"\u958b\u8fb2\u5bae"},"geometry":{"type":"Point","coordinates":[120.25019688971,22.937306268191]}},{"type":"Feature","properties":{"name":"\u5abd\u5edf\u4ead"},"geometry":{"type":"Point","coordinates":[120.29419620729,22.991741459414]}},{"type":"Feature","properties":{"name":"\u5167\u5e84\u671d\u5929\u5bae"},"geometry":{"type":"Point","coordinates":[120.36255745382,23.11752475409]}},{"type":"Feature","properties":{"name":"\u89c0\u97f3\u5edf"},"geometry":{"type":"Point","coordinates":[120.25446090567,22.948447307389]}},{"type":"Feature","properties":{"name":"\u5317\u4fdd\u4ed4\u4fdd\u751f\u5bae"},"geometry":{"type":"Point","coordinates":[120.25198398163,22.954454041935]}},{"type":"Feature","properties":{"name":"\u4f70\u5e74\u5bae"},"geometry":{"type":"Point","coordinates":[120.26388957388,23.334465832521]}},{"type":"Feature","properties":{"name":"\u4fdd\u751f\u5bae"},"geometry":{"type":"Point","coordinates":[120.24681678694,23.261752754148]}},{"type":"Feature","properties":{"name":"\u7464\u95d5\u5bae\u5c0e\u4fee\u5802"},"geometry":{"type":"Point","coordinates":[120.45927582254,23.123733741357]}},{"type":"Feature","properties":{"name":"\u6e05\u6c34\u5bfa"},"geometry":{"type":"Point","coordinates":[120.47333622649,23.096175457291]}},{"type":"Feature","properties":{"name":"\u81f3\u5fb7\u975c\u9662(\u5df2\u5ee2\u6b62)"},"geometry":{"type":"Point","coordinates":[120.34020355933,22.92266355622]}},{"type":"Feature","properties":{"name":"\u4e09\u6e05\u5bae"},"geometry":{"type":"Point","coordinates":[120.4848432884,23.141011169794]}},{"type":"Feature","properties":{"name":"\u5713\u901a\u5bae"},"geometry":{"type":"Point","coordinates":[120.4627822187,23.101134041937]}},{"type":"Feature","properties":{"name":"\u5f8c\u71df\u6c38\u5b89\u5bae"},"geometry":{"type":"Point","coordinates":[120.21304714086,23.131714118398]}},{"type":"Feature","properties":{"name":"\u7389\u4ed9\u5bae"},"geometry":{"type":"Point","coordinates":[120.26632067503,23.188190741282]}},{"type":"Feature","properties":{"name":"\u7389\u4e95\u6148\u60e0\u5802"},"geometry":{"type":"Point","coordinates":[120.46346669101,23.126836962653]}},{"type":"Feature","properties":{"name":"\u8ca1\u5718\u6cd5\u4eba\u53f0\u7063\u7701\u53f0\u5357\u5e02\u5ff5\u5b57\u8056\u5802"},"geometry":{"type":"Point","coordinates":[120.23237960684,22.996146452768]}},{"type":"Feature","properties":{"name":"\u897f\u52e2\u738b\u723a\u58c7"},"geometry":{"type":"Point","coordinates":[120.28707108331,22.997512037311]}},{"type":"Feature","properties":{"name":"\u8ce2\u660e\u58c7"},"geometry":{"type":"Point","coordinates":[120.35690838751,22.918425020288]}},{"type":"Feature","properties":{"name":"\u8ca1\u5718\u6cd5\u4eba\u53f0\u7063\u7701\u53f0\u5357\u5e02\u4fdd\u5b89\u5bae"},"geometry":{"type":"Point","coordinates":[120.19569428688,22.990614085525]}},{"type":"Feature","properties":{"name":"\u5fe0\u7fa9\u4f5b\u9662"},"geometry":{"type":"Point","coordinates":[120.22545399422,23.13612313532]}},{"type":"Feature","properties":{"name":"\u8d64\u5c71\u9f8d\u6e56\u5dd6"},"geometry":{"type":"Point","coordinates":[120.36101045273,23.21675520864]}},{"type":"Feature","properties":{"name":"\u9748\u662d\u5bae"},"geometry":{"type":"Point","coordinates":[120.31113621934,23.101411652753]}},{"type":"Feature","properties":{"name":"\u5927\u773e\u723a\u5edf"},"geometry":{"type":"Point","coordinates":[120.35093317191,23.23097261107]}},{"type":"Feature","properties":{"name":"\u958b\u57fa\u9670\u967d\u516c\u5edf"},"geometry":{"type":"Point","coordinates":[120.20820667117,23.000333580216]}},{"type":"Feature","properties":{"name":"\u7464\u6c60\u6b66\u8056\u5bae"},"geometry":{"type":"Point","coordinates":[120.51878131275,23.179797589006]}},{"type":"Feature","properties":{"name":"\u7384\u826f\u4ead"},"geometry":{"type":"Point","coordinates":[120.19812143957,22.982721500183]}},{"type":"Feature","properties":{"name":"\u6587\u8861\u6bbf"},"geometry":{"type":"Point","coordinates":[120.14406788499,23.179086441742]}},{"type":"Feature","properties":{"name":"\u798f\u5fb7\u7960"},"geometry":{"type":"Point","coordinates":[120.20949803507,22.986831117565]}},{"type":"Feature","properties":{"name":"\u8208\u8b77\u5bae"},"geometry":{"type":"Point","coordinates":[120.22065134995,23.07374662583]}},{"type":"Feature","properties":{"name":"\u897f\u57d4\u8208\u5b89\u58c7"},"geometry":{"type":"Point","coordinates":[120.44174977079,23.038701563719]}},{"type":"Feature","properties":{"name":"\u897f\u57d4\u6e05\u6c34\u5bfa"},"geometry":{"type":"Point","coordinates":[120.4802256148,23.035691883606]}},{"type":"Feature","properties":{"name":"\u5317\u5e73\u5abd\u7956\u5bae"},"geometry":{"type":"Point","coordinates":[120.47351245237,23.064456927875]}},{"type":"Feature","properties":{"name":"\u7965\u5149\u79aa\u5bfa"},"geometry":{"type":"Point","coordinates":[120.47893537066,23.07160927559]}},{"type":"Feature","properties":{"name":"\u8305\u57d4\u592a\u5b50\u5bae"},"geometry":{"type":"Point","coordinates":[120.52700659524,23.085377591009]}},{"type":"Feature","properties":{"name":"\u4fdd\u5b89\u5bae"},"geometry":{"type":"Point","coordinates":[120.26864567963,23.180781869545]}},{"type":"Feature","properties":{"name":"\u6e05\u6c34\u7956\u5e2b\u58c7"},"geometry":{"type":"Point","coordinates":[120.3367281544,22.955068151117]}},{"type":"Feature","properties":{"name":"\u958b\u57fa\u60b3\u83ef\u6bbf"},"geometry":{"type":"Point","coordinates":[120.19678577713,23.015804787498]}},{"type":"Feature","properties":{"name":"\u660e\u8056\u5bae"},"geometry":{"type":"Point","coordinates":[120.31567131298,23.270794619142]}},{"type":"Feature","properties":{"name":"\u6167\u79aa\u5bae"},"geometry":{"type":"Point","coordinates":[120.38160661927,23.373997178521]}},{"type":"Feature","properties":{"name":"\u958b\u57fa\u5929\u540e\u5bae"},"geometry":{"type":"Point","coordinates":[120.20255034436,22.999637153532]}},{"type":"Feature","properties":{"name":"\u767d\u9f8d\u5eb5\u4e94\u9748\u5802"},"geometry":{"type":"Point","coordinates":[120.20633739273,23.00067784422]}},{"type":"Feature","properties":{"name":"\u5fe0\u5b5d\u5802"},"geometry":{"type":"Point","coordinates":[120.32083819835,23.353539984233]}},{"type":"Feature","properties":{"name":"\u7121\u6975\u91d1\u947e\u5bf6\u6bbf"},"geometry":{"type":"Point","coordinates":[120.30525443273,22.995416716761]}},{"type":"Feature","properties":{"name":"\u53b2\u738b\u6587\u5b89\u5bae"},"geometry":{"type":"Point","coordinates":[120.19336613629,22.980688885802]}},{"type":"Feature","properties":{"name":"\u56db\u7532\u5edf"},"geometry":{"type":"Point","coordinates":[120.33317763686,22.953753525934]}},{"type":"Feature","properties":{"name":"\u8ca1\u5718\u6cd5\u4eba\u53f0\u7063\u7701\u53f0\u5357\u5e02\u8c41\u843d\u9662\u4ec1\u6148\u5802"},"geometry":{"type":"Point","coordinates":[120.19437232516,22.978289730091]}},{"type":"Feature","properties":{"name":"\u9577\u6210\u5bae"},"geometry":{"type":"Point","coordinates":[120.26592848616,23.316779239885]}},{"type":"Feature","properties":{"name":"\u4ee3\u6e05\u5bae"},"geometry":{"type":"Point","coordinates":[120.37307400996,22.95243504423]}},{"type":"Feature","properties":{"name":"\u5b89\u6eaa\u5bfa"},"geometry":{"type":"Point","coordinates":[120.20291268754,23.025541942818]}},{"type":"Feature","properties":{"name":"\u5317\u5bee\u9f8d\u9cf3\u5bae"},"geometry":{"type":"Point","coordinates":[120.48866787961,23.082263256586]}},{"type":"Feature","properties":{"name":"\u571f\u5b89\u5bae"},"geometry":{"type":"Point","coordinates":[120.3479852781,23.320287625901]}},{"type":"Feature","properties":{"name":"\u7530\u4ed4\u89d2\u6148\u9cf3\u5bae"},"geometry":{"type":"Point","coordinates":[120.25963640738,23.23465232822]}},{"type":"Feature","properties":{"name":"\u5927\u5c71\u5bae"},"geometry":{"type":"Point","coordinates":[120.40434999629,23.398943032336]}},{"type":"Feature","properties":{"name":"\u8ca1\u5718\u6cd5\u4eba\u53f0\u5357\u7e23\u4e00\u8cab\u9053\u7fa9\u548c\u8056\u5802"},"geometry":{"type":"Point","coordinates":[120.36457328844,23.184587646504]}},{"type":"Feature","properties":{"name":"\u4e09\u4ed9\u5bae"},"geometry":{"type":"Point","coordinates":[120.30867173605,23.039465369847]}},{"type":"Feature","properties":{"name":"\u5d07\u83ef\u5802\u5929\u4e7e\u9053\u9662"},"geometry":{"type":"Point","coordinates":[120.33597889298,23.025542736893]}},{"type":"Feature","properties":{"name":"\ue000\u62d4\u6797\u6148\u5929\u5bae"},"geometry":{"type":"Point","coordinates":[120.35230790024,23.067993472107]}},{"type":"Feature","properties":{"name":"\u4e94\u986f\u5bae"},"geometry":{"type":"Point","coordinates":[120.38602389946,23.262330192144]}},{"type":"Feature","properties":{"name":"\u4ed9\u5b97\u79aa\u9662"},"geometry":{"type":"Point","coordinates":[120.51666900048,23.046326558891]}},{"type":"Feature","properties":{"name":"\u4fe1\u5b89\u5bae"},"geometry":{"type":"Point","coordinates":[120.21157870773,23.197801081331]}},{"type":"Feature","properties":{"name":"\u6771\u5b89\u5bae"},"geometry":{"type":"Point","coordinates":[120.31723336706,23.277244943697]}},{"type":"Feature","properties":{"name":"\u5927\u7af9\u798f\u5fb7\u5edf"},"geometry":{"type":"Point","coordinates":[120.40876572333,23.369013968314]}},{"type":"Feature","properties":{"name":"\u8ca1\u5718\u6cd5\u4eba\u706b\u5c71\u78a7\u96f2\u5bfa"},"geometry":{"type":"Point","coordinates":[120.48088289383,23.325265545433]}},{"type":"Feature","properties":{"name":"\u7389\u52c5\u6148\u6fdf\u5bae"},"geometry":{"type":"Point","coordinates":[120.50996552309,23.271650296808]}},{"type":"Feature","properties":{"name":"\u9032\u8208\u5bfa"},"geometry":{"type":"Point","coordinates":[120.49344127822,23.317141609811]}},{"type":"Feature","properties":{"name":"\u627f\u4f5b\u5bfa"},"geometry":{"type":"Point","coordinates":[120.41618127665,23.34686232112]}},{"type":"Feature","properties":{"name":"\u9f8d\u5c71\u5bae"},"geometry":{"type":"Point","coordinates":[120.11342062521,23.138348101445]}},{"type":"Feature","properties":{"name":"\u586d\u5167\u86b6\u5bee\u6c38\u660c\u5bae"},"geometry":{"type":"Point","coordinates":[120.16323611784,23.124982854724]}},{"type":"Feature","properties":{"name":"\u5927\u7063\u6e05\u6c34\u5bae"},"geometry":{"type":"Point","coordinates":[120.26575939126,23.012949268718]}},{"type":"Feature","properties":{"name":"\u5317\u52e2\u5bee\u6cc9\u798f\u5802"},"geometry":{"type":"Point","coordinates":[120.36421362834,23.317710379291]}},{"type":"Feature","properties":{"name":"\u4f5b\u9f8d\u5bae"},"geometry":{"type":"Point","coordinates":[120.14183667746,23.144664797409]}},{"type":"Feature","properties":{"name":"\u5ee3\u6fa4\u5c0a\u738b\u5bae"},"geometry":{"type":"Point","coordinates":[120.43816635658,23.377750748536]}},{"type":"Feature","properties":{"name":"\u5927\u8c50\u5e9c"},"geometry":{"type":"Point","coordinates":[120.41829745683,23.378948096847]}},{"type":"Feature","properties":{"name":"\u4e94\u5b89\u5bae"},"geometry":{"type":"Point","coordinates":[120.23735606249,23.28950977703]}},{"type":"Feature","properties":{"name":"\u6b63\u5fb7\u5802"},"geometry":{"type":"Point","coordinates":[120.23506039396,23.172113953529]}},{"type":"Feature","properties":{"name":"\u6771\u9686\u5bae"},"geometry":{"type":"Point","coordinates":[120.11207657862,23.238804291268]}},{"type":"Feature","properties":{"name":"\u592a\u5b50\u5bae"},"geometry":{"type":"Point","coordinates":[120.24052532752,23.190605174747]}},{"type":"Feature","properties":{"name":"\u666f\u798f\u7960"},"geometry":{"type":"Point","coordinates":[120.1984843826,22.997688609105]}},{"type":"Feature","properties":{"name":"\u4e8c\u5bee\u516b\u9f8d\u6bbf"},"geometry":{"type":"Point","coordinates":[120.40832197335,22.990732574954]}},{"type":"Feature","properties":{"name":"\u798f\u5fb7\u723a\u5edf"},"geometry":{"type":"Point","coordinates":[120.20817654705,22.989760400786]}},{"type":"Feature","properties":{"name":"\u6587\u8861\u6bbf"},"geometry":{"type":"Point","coordinates":[120.38318467671,22.948663837173]}},{"type":"Feature","properties":{"name":"\u7956\u5e2b\u5edf"},"geometry":{"type":"Point","coordinates":[120.3105325889,23.123636738862]}},{"type":"Feature","properties":{"name":"\u6de8\u6797\u4f5b\u820d"},"geometry":{"type":"Point","coordinates":[120.31496238234,23.269765991933]}},{"type":"Feature","properties":{"name":"\u5357\u6f6d\u5143\u5e25\u5edf"},"geometry":{"type":"Point","coordinates":[120.28023581929,22.988071338001]}},{"type":"Feature","properties":{"name":"\u770b\u897f\u6b66\u8056\u5bae"},"geometry":{"type":"Point","coordinates":[120.30080287179,22.962187696524]}},{"type":"Feature","properties":{"name":"\u6b66\u6771\u7384\u6b66\u5bae"},"geometry":{"type":"Point","coordinates":[120.27320659904,22.917675298318]}},{"type":"Feature","properties":{"name":"\u6587\u8056\u5edf"},"geometry":{"type":"Point","coordinates":[120.30647277871,23.13334439049]}},{"type":"Feature","properties":{"name":"\u4e09\u8056\u5bae"},"geometry":{"type":"Point","coordinates":[120.30177954359,23.303503829517]}},{"type":"Feature","properties":{"name":"\u7389\u6240\u884c\u9928"},"geometry":{"type":"Point","coordinates":[120.2644342108,23.012017521591]}},{"type":"Feature","properties":{"name":"\u5510\u5b89\u5bae"},"geometry":{"type":"Point","coordinates":[120.20285009635,23.181006883502]}},{"type":"Feature","properties":{"name":"\u7104\u7557\u5bae"},"geometry":{"type":"Point","coordinates":[120.28623926467,23.131682954023]}},{"type":"Feature","properties":{"name":"\u771f\u6b66\u6bbf"},"geometry":{"type":"Point","coordinates":[120.31280501709,23.299867328849]}},{"type":"Feature","properties":{"name":"\u9686\u660e\u5bae"},"geometry":{"type":"Point","coordinates":[120.14800999275,23.151301743215]}},{"type":"Feature","properties":{"name":"\u6cf0\u5b89\u5bae"},"geometry":{"type":"Point","coordinates":[120.11107081914,23.260887592735]}},{"type":"Feature","properties":{"name":"\u7530\u5bee\u5929\u540e\u5bae"},"geometry":{"type":"Point","coordinates":[120.30196200616,23.151368899756]}},{"type":"Feature","properties":{"name":"\u5357\u53f0\u6148\u60e0\u5802\u7464\u6c60\u5bae"},"geometry":{"type":"Point","coordinates":[120.22813749712,22.98121205144]}},{"type":"Feature","properties":{"name":"\u5fe0\u7fa9\u8056\u5802"},"geometry":{"type":"Point","coordinates":[120.3176110823,22.97484520894]}},{"type":"Feature","properties":{"name":"\u5bf6\u9f8d\u5bae"},"geometry":{"type":"Point","coordinates":[120.11980511279,23.127855530685]}},{"type":"Feature","properties":{"name":"\u671d\u5b89\u5bae"},"geometry":{"type":"Point","coordinates":[120.19660609509,23.172291793499]}},{"type":"Feature","properties":{"name":"\u7530\u9f8d\u9928"},"geometry":{"type":"Point","coordinates":[120.18013586476,23.23617218795]}},{"type":"Feature","properties":{"name":"\u6f22\u9f8d\u5bae"},"geometry":{"type":"Point","coordinates":[120.38702391728,23.009940245499]}},{"type":"Feature","properties":{"name":"\u897f\u8208\u5bae"},"geometry":{"type":"Point","coordinates":[120.09695482875,23.169736523004]}},{"type":"Feature","properties":{"name":"\u5fe0\u9806\u5e9c"},"geometry":{"type":"Point","coordinates":[120.29701368594,22.969443136139]}},{"type":"Feature","properties":{"name":"\u5409\u5b89\u5bae"},"geometry":{"type":"Point","coordinates":[120.12925507085,23.092933802824]}},{"type":"Feature","properties":{"name":"\u96f7\u6069\u884c\u5bae"},"geometry":{"type":"Point","coordinates":[120.20356327488,23.182085053909]}},{"type":"Feature","properties":{"name":"\u91d1\u4f5b\u5bfa"},"geometry":{"type":"Point","coordinates":[120.37436404703,23.106650579779]}},{"type":"Feature","properties":{"name":"\u5fb7\u6797\u7cbe\u820d"},"geometry":{"type":"Point","coordinates":[120.3508630316,22.982230302634]}},{"type":"Feature","properties":{"name":"\u666e\u5b89\u5bae"},"geometry":{"type":"Point","coordinates":[120.26828811182,23.142957254011]}},{"type":"Feature","properties":{"name":"\u666e\u6fdf\u5bae"},"geometry":{"type":"Point","coordinates":[120.28544636001,23.133724589651]}},{"type":"Feature","properties":{"name":"\u7af9\u6e2f\u4e0a\u5929\u7389\u52c5\u4ee3\u5929\u5bae"},"geometry":{"type":"Point","coordinates":[120.17203555511,23.111019693338]}},{"type":"Feature","properties":{"name":"\u6148\u9cf3\u5bae"},"geometry":{"type":"Point","coordinates":[120.27289063374,23.000402541587]}},{"type":"Feature","properties":{"name":"\u4f5b\u9853\u5bfa"},"geometry":{"type":"Point","coordinates":[120.33959407708,23.016755802801]}},{"type":"Feature","properties":{"name":"\u666e\u9640\u5c71\u89c0\u97f3\u5bfa"},"geometry":{"type":"Point","coordinates":[120.36492086125,22.931903124145]}},{"type":"Feature","properties":{"name":"\u8056\u5b89\u5bae"},"geometry":{"type":"Point","coordinates":[120.17535770366,23.154731405432]}},{"type":"Feature","properties":{"name":"\u592a\u5b89\u5bae"},"geometry":{"type":"Point","coordinates":[120.18146360269,23.231347879438]}},{"type":"Feature","properties":{"name":"\u9748\u5c71\u6148\u60e0\u5802"},"geometry":{"type":"Point","coordinates":[120.33502943948,23.026192976099]}},{"type":"Feature","properties":{"name":"\u5831\u6069\u79aa\u5bfa"},"geometry":{"type":"Point","coordinates":[120.18272331144,23.160629475931]}},{"type":"Feature","properties":{"name":"\u4f73\u6c60\u5bae"},"geometry":{"type":"Point","coordinates":[120.18239550744,23.15755074092]}},{"type":"Feature","properties":{"name":"\u8056\u5e1d\u6bbf"},"geometry":{"type":"Point","coordinates":[120.18067221036,23.158379132598]}},{"type":"Feature","properties":{"name":"\u93ae\u6b66\u5bae"},"geometry":{"type":"Point","coordinates":[120.37665915468,23.329885662404]}},{"type":"Feature","properties":{"name":"\u859b\u738b\u5e9c"},"geometry":{"type":"Point","coordinates":[120.33507214594,23.109840493085]}},{"type":"Feature","properties":{"name":"\u5584\u96b1\u5bfa"},"geometry":{"type":"Point","coordinates":[120.36380917114,23.012052317399]}},{"type":"Feature","properties":{"name":"\u8056\u4f5b\u5bae"},"geometry":{"type":"Point","coordinates":[120.31858455313,23.089174671991]}},{"type":"Feature","properties":{"name":"\u7063\u539d\u5317\u6975\u6bbf"},"geometry":{"type":"Point","coordinates":[120.2937627776,22.963154801252]}},{"type":"Feature","properties":{"name":"\u5927\u793e\u897f\u8208\u5317\u6975\u6bbf"},"geometry":{"type":"Point","coordinates":[120.31384991268,23.086681706155]}},{"type":"Feature","properties":{"name":"\u6c38\u5eb7\u6148\u540e\u5bae"},"geometry":{"type":"Point","coordinates":[120.26019323781,23.021637219914]}},{"type":"Feature","properties":{"name":"\u795e\u8fb2\u5edf"},"geometry":{"type":"Point","coordinates":[120.38147539504,23.086292364317]}},{"type":"Feature","properties":{"name":"\u6fdf\u5fb7\u4f5b\u9662"},"geometry":{"type":"Point","coordinates":[120.30869852765,23.098491025268]}},{"type":"Feature","properties":{"name":"\u793e\u5167\u6e05\u6c34\u5bae"},"geometry":{"type":"Point","coordinates":[120.27957993372,23.077451542481]}},{"type":"Feature","properties":{"name":"\u4ee3\u5929\u5e9c"},"geometry":{"type":"Point","coordinates":[120.32467853598,23.077142818087]}},{"type":"Feature","properties":{"name":"\u6c38\u5b89\u5bae"},"geometry":{"type":"Point","coordinates":[120.29382599231,23.078516228325]}},{"type":"Feature","properties":{"name":"\u6c38\u5c31\u5bae"},"geometry":{"type":"Point","coordinates":[120.29433618877,23.059292983211]}},{"type":"Feature","properties":{"name":"\u671d\u5929\u5bae"},"geometry":{"type":"Point","coordinates":[120.34863295678,23.106023180857]}},{"type":"Feature","properties":{"name":"\u7384\u6b66\u5bae"},"geometry":{"type":"Point","coordinates":[120.2507964229,22.992294208016]}},{"type":"Feature","properties":{"name":"\u4fdd\u8056\u5bae"},"geometry":{"type":"Point","coordinates":[120.22194572679,23.293290287413]}},{"type":"Feature","properties":{"name":"\u8c50\u69ae\u5317\u6975\u6bbf"},"geometry":{"type":"Point","coordinates":[120.30497834115,23.088369933675]}},{"type":"Feature","properties":{"name":"\u9f8d\u5c71\u79aa\u9662"},"geometry":{"type":"Point","coordinates":[120.29487686533,22.996693075481]}},{"type":"Feature","properties":{"name":"\u4e0a\u5e1d\u5edf"},"geometry":{"type":"Point","coordinates":[120.4513937729,23.36737696236]}},{"type":"Feature","properties":{"name":"\u7167\u660e\u5bae"},"geometry":{"type":"Point","coordinates":[120.29668223743,23.090380792718]}},{"type":"Feature","properties":{"name":"\u6587\u660c\u6bbf"},"geometry":{"type":"Point","coordinates":[120.13947421867,23.123075482321]}},{"type":"Feature","properties":{"name":"\u6f6d\u5898\u4ee3\u5929\u5e9c"},"geometry":{"type":"Point","coordinates":[120.27952472675,22.9605561267]}},{"type":"Feature","properties":{"name":"\u5927\u5b85\u4e2d\u5b89\u5bae"},"geometry":{"type":"Point","coordinates":[120.28524985844,23.077827215803]}},{"type":"Feature","properties":{"name":"\u6c38\u9686\u5bae"},"geometry":{"type":"Point","coordinates":[120.30028299046,23.075134171668]}},{"type":"Feature","properties":{"name":"\u6de8\u570b\u5bfa"},"geometry":{"type":"Point","coordinates":[120.30851681952,22.971247407758]}},{"type":"Feature","properties":{"name":"\u671d\u9686\u5bae"},"geometry":{"type":"Point","coordinates":[120.27366342433,23.273430415836]}},{"type":"Feature","properties":{"name":"\u5f8c\u5e02\u4e94\u516c\u79aa\u9662"},"geometry":{"type":"Point","coordinates":[120.28960212671,22.968486212908]}},{"type":"Feature","properties":{"name":"\u4fe1\u884c\u79aa\u5bfa"},"geometry":{"type":"Point","coordinates":[120.17616194368,23.165387197864]}},{"type":"Feature","properties":{"name":"\u6148\u660e\u5bfa"},"geometry":{"type":"Point","coordinates":[120.28897559603,23.134442904555]}},{"type":"Feature","properties":{"name":"\u4e09\u5b89\u5bae"},"geometry":{"type":"Point","coordinates":[120.10985861022,23.240462779516]}},{"type":"Feature","properties":{"name":"\u5d01\u4ed4\u982d\u6e05\u6c34\u5bae"},"geometry":{"type":"Point","coordinates":[120.29147425039,22.964386890709]}},{"type":"Feature","properties":{"name":"\u9ebb\u8c46\u6d77\u57d4\u6c60\u738b\u5e9c"},"geometry":{"type":"Point","coordinates":[120.21269152878,23.204792376186]}},{"type":"Feature","properties":{"name":"\u7389\u9f8d\u5bae"},"geometry":{"type":"Point","coordinates":[120.13428560602,23.137200419056]}},{"type":"Feature","properties":{"name":"\u5f18\u8fb2\u5bae"},"geometry":{"type":"Point","coordinates":[120.30287447726,22.961854477218]}},{"type":"Feature","properties":{"name":"\u5b89\u5e73\u676d\u5dde\u6bbf"},"geometry":{"type":"Point","coordinates":[120.16266687972,22.99289527485]}},{"type":"Feature","properties":{"name":"\u8ca1\u5718\u6cd5\u4eba\u53f0\u5357\u7e23\u5ee3\u8208\u5bae"},"geometry":{"type":"Point","coordinates":[120.27988313807,23.019286983178]}},{"type":"Feature","properties":{"name":"\u6b66\u5b89\u5bae"},"geometry":{"type":"Point","coordinates":[120.30824433143,23.031884514132]}},{"type":"Feature","properties":{"name":"\u897f\u6e56\u9748\u96b1\u5bfa"},"geometry":{"type":"Point","coordinates":[120.33707531003,23.008446402087]}},{"type":"Feature","properties":{"name":"\u6e05\u83ef\u5bae"},"geometry":{"type":"Point","coordinates":[120.34062361818,23.025033325845]}},{"type":"Feature","properties":{"name":"\u61c9\u5929\u5e9c"},"geometry":{"type":"Point","coordinates":[120.35264363154,23.065339951727]}},{"type":"Feature","properties":{"name":"\u9f9c\u5b50\u6e2f\u4fdd\u751f\u5edf"},"geometry":{"type":"Point","coordinates":[120.30851087682,23.250384553429]}},{"type":"Feature","properties":{"name":"\u4e09\u7532\u5b50\u4e09\u723a\u5bae"},"geometry":{"type":"Point","coordinates":[120.23656564671,22.932940994189]}},{"type":"Feature","properties":{"name":"\u4e09\u820d\u4fdd\u6fdf\u6bbf"},"geometry":{"type":"Point","coordinates":[120.28929369052,23.094986949687]}},{"type":"Feature","properties":{"name":"\u65b0\u5316\u9053\u9662"},"geometry":{"type":"Point","coordinates":[120.3821412477,23.02300676126]}},{"type":"Feature","properties":{"name":"\u5927\u5751\u8056\u6bcd\u5bae"},"geometry":{"type":"Point","coordinates":[120.38515060371,23.008746094548]}},{"type":"Feature","properties":{"name":"\u6b66\u7576\u5c71\u5edf"},"geometry":{"type":"Point","coordinates":[120.28038789052,22.917367996369]}},{"type":"Feature","properties":{"name":"\u6e44\u5a46\u5bae"},"geometry":{"type":"Point","coordinates":[120.25430288931,23.127534309401]}},{"type":"Feature","properties":{"name":"\u5fe0\u9806\u5bae"},"geometry":{"type":"Point","coordinates":[120.27759062935,22.9269716971]}},{"type":"Feature","properties":{"name":"\u7950\u738b\u5bae"},"geometry":{"type":"Point","coordinates":[120.12883118424,23.189168438575]}},{"type":"Feature","properties":{"name":"\u9f8d\u5fb7\u5bae"},"geometry":{"type":"Point","coordinates":[120.11816799286,23.099296850456]}},{"type":"Feature","properties":{"name":"\u4e2d\u5bee\u5929\u540e\u5bae"},"geometry":{"type":"Point","coordinates":[120.10868173237,23.153791431098]}},{"type":"Feature","properties":{"name":"\u4e03\u80a1\u4e5d\u9f8d\u5bae"},"geometry":{"type":"Point","coordinates":[120.12858115447,23.134632415855]}},{"type":"Feature","properties":{"name":"\u5fb7\u5b89\u5bae"},"geometry":{"type":"Point","coordinates":[120.17114441797,23.110708448145]}},{"type":"Feature","properties":{"name":"\u4e94\u6c74\u982d\u798f\u5982\u5bae"},"geometry":{"type":"Point","coordinates":[120.45520374761,23.369595290729]}},{"type":"Feature","properties":{"name":"\u5d01\u9802\u798f\u5b89\u5bae"},"geometry":{"type":"Point","coordinates":[120.50284821351,23.297482392571]}},{"type":"Feature","properties":{"name":"\u671d\u5929\u5bae"},"geometry":{"type":"Point","coordinates":[120.38495227363,23.353863262046]}},{"type":"Feature","properties":{"name":"\u842c\u5584\u516c\u5edf"},"geometry":{"type":"Point","coordinates":[120.39207653949,23.383309448039]}},{"type":"Feature","properties":{"name":"\u53f0\u5357\u5fb7\u9580\u4e5d\u9f8d\u7121\u6975\u6bbf"},"geometry":{"type":"Point","coordinates":[120.34078179039,23.166559874677]}},{"type":"Feature","properties":{"name":"\u679c\u6797\u7cbe\u820d"},"geometry":{"type":"Point","coordinates":[120.34299837108,23.168766799377]}},{"type":"Feature","properties":{"name":"\u6148\u5b89\u5bae"},"geometry":{"type":"Point","coordinates":[120.3216331359,23.174174383182]}},{"type":"Feature","properties":{"name":"\u6771\u6c60\u5bae"},"geometry":{"type":"Point","coordinates":[120.1947220528,23.186042402306]}},{"type":"Feature","properties":{"name":"\u7389\u52c5\u6b63\u738b\u5e9c"},"geometry":{"type":"Point","coordinates":[120.10210374838,23.090033856887]}},{"type":"Feature","properties":{"name":"\u6cd5\u5b89\u5bae"},"geometry":{"type":"Point","coordinates":[120.11046786507,23.239902505373]}},{"type":"Feature","properties":{"name":"\u8ca1\u5718\u6cd5\u4eba\u81fa\u7063\u7701\u81fa\u5357\u7e23\u5b78\u7532\u6148\u6fdf\u5bae"},"geometry":{"type":"Point","coordinates":[120.18049564391,23.233772040214]}},{"type":"Feature","properties":{"name":"\u6176\u5b89\u5bae"},"geometry":{"type":"Point","coordinates":[120.28994690629,23.132746570282]}},{"type":"Feature","properties":{"name":"\u6148\u6167\u5802"},"geometry":{"type":"Point","coordinates":[120.25314127497,23.124597023604]}},{"type":"Feature","properties":{"name":"\u4e2d\u8208\u5bae"},"geometry":{"type":"Point","coordinates":[120.18135626871,23.154719522134]}},{"type":"Feature","properties":{"name":"\u5433\u798f\u5bae"},"geometry":{"type":"Point","coordinates":[120.16913376245,23.286465763853]}},{"type":"Feature","properties":{"name":"\u671d\u5929\u5bae"},"geometry":{"type":"Point","coordinates":[120.17598998726,22.941464370659]}},{"type":"Feature","properties":{"name":"\u5929\u5143\u5bae"},"geometry":{"type":"Point","coordinates":[120.38323168969,22.944744812915]}},{"type":"Feature","properties":{"name":"\u9f8d\u6587\u5edf"},"geometry":{"type":"Point","coordinates":[120.29710467024,23.131789101081]}},{"type":"Feature","properties":{"name":"\u897f\u885b\u958b\u5143\u5bae"},"geometry":{"type":"Point","coordinates":[120.25927952894,23.133355513092]}},{"type":"Feature","properties":{"name":"\u798f\u5b89\u5bae"},"geometry":{"type":"Point","coordinates":[120.24807208593,23.185167978848]}},{"type":"Feature","properties":{"name":"\u5ee3\u5b89\u5bae"},"geometry":{"type":"Point","coordinates":[120.17169910331,23.156255787028]}},{"type":"Feature","properties":{"name":"\u958b\u4ed9\u5bae"},"geometry":{"type":"Point","coordinates":[120.21609358034,23.023130822956]}},{"type":"Feature","properties":{"name":"\u96f2\u96c6\u5bfa"},"geometry":{"type":"Point","coordinates":[120.17810374818,23.170059388846]}},{"type":"Feature","properties":{"name":"\u5999\u97f3\u8b1b\u5802"},"geometry":{"type":"Point","coordinates":[120.34039434286,23.235389312874]}},{"type":"Feature","properties":{"name":"\u9f8d\u6e56\u5bae"},"geometry":{"type":"Point","coordinates":[120.34695693033,23.232798264654]}},{"type":"Feature","properties":{"name":"\u4e09\u7d50\u7fa9\u4e09\u5343\u5bae"},"geometry":{"type":"Point","coordinates":[120.31426314138,23.213673200617]}},{"type":"Feature","properties":{"name":"\u842c\u5e74\u6bbf"},"geometry":{"type":"Point","coordinates":[120.18013874866,22.933315369295]}},{"type":"Feature","properties":{"name":"\u897f\u53f0\u6148\u60e0\u5802"},"geometry":{"type":"Point","coordinates":[120.33407008615,22.937267635908]}},{"type":"Feature","properties":{"name":"\u4fdd\u8056\u6bbf"},"geometry":{"type":"Point","coordinates":[120.25961932489,23.027510024166]}},{"type":"Feature","properties":{"name":"\u51cc\u745a\u79aa\u5bfa"},"geometry":{"type":"Point","coordinates":[120.38067651361,23.292832488377]}},{"type":"Feature","properties":{"name":"\u96d9\u826f\u5bae"},"geometry":{"type":"Point","coordinates":[120.21134349307,23.005598990105]}},{"type":"Feature","properties":{"name":"\u63a5\u5929\u5bfa"},"geometry":{"type":"Point","coordinates":[120.34813825433,23.06484282961]}},{"type":"Feature","properties":{"name":"\u5927\u5bee\u9f8d\u5b89\u5bae"},"geometry":{"type":"Point","coordinates":[120.15357901895,23.148334014327]}},{"type":"Feature","properties":{"name":"\u9707\u8208\u5bae"},"geometry":{"type":"Point","coordinates":[120.18849791567,23.19107241365]}},{"type":"Feature","properties":{"name":"\u8d85\u5cf0\u5bfa"},"geometry":{"type":"Point","coordinates":[120.4101804595,22.943393543114]}},{"type":"Feature","properties":{"name":"\u57ce\u968d\u5edf"},"geometry":{"type":"Point","coordinates":[120.16348410879,22.999549424453]}},{"type":"Feature","properties":{"name":"\u516d\u5b89\u5802"},"geometry":{"type":"Point","coordinates":[120.17920098611,23.171730134076]}},{"type":"Feature","properties":{"name":"\u795e\u8208\u5bae"},"geometry":{"type":"Point","coordinates":[120.19844356213,22.99455774916]}},{"type":"Feature","properties":{"name":"\u9cf3\u5b89\u5bae"},"geometry":{"type":"Point","coordinates":[120.39998715653,23.318899082764]}},{"type":"Feature","properties":{"name":"\u5f8c\u5e97\u5317\u6975\u6bbf"},"geometry":{"type":"Point","coordinates":[120.31765544676,23.093112426797]}},{"type":"Feature","properties":{"name":"\u540c\u6fdf\u5bae"},"geometry":{"type":"Point","coordinates":[120.31821141891,23.311110362825]}},{"type":"Feature","properties":{"name":"\u5b5a\u4f51\u5b89\u6fdf\u5bae"},"geometry":{"type":"Point","coordinates":[120.33657060871,22.953541360646]}},{"type":"Feature","properties":{"name":"\u6c38\u5b89\u5bae"},"geometry":{"type":"Point","coordinates":[120.12952034694,23.300293697407]}},{"type":"Feature","properties":{"name":"\u7d2b\u5206\u5bae"},"geometry":{"type":"Point","coordinates":[120.39156734289,23.120705066709]}},{"type":"Feature","properties":{"name":"\u4e09\u6975\u91d1\u95d5"},"geometry":{"type":"Point","coordinates":[120.40812600342,23.123848555987]}},{"type":"Feature","properties":{"name":"\u82f1\u9748\u5edf"},"geometry":{"type":"Point","coordinates":[120.22668736789,23.012371784757]}},{"type":"Feature","properties":{"name":"\u9577\u8208\u5bae"},"geometry":{"type":"Point","coordinates":[120.19231135782,23.18572167967]}},{"type":"Feature","properties":{"name":"\u7389\u83ef\u5bae"},"geometry":{"type":"Point","coordinates":[120.46606776842,23.278437844248]}},{"type":"Feature","properties":{"name":"\u4fdd\u897f\u4ee3\u5929\u5e9c"},"geometry":{"type":"Point","coordinates":[120.2777124081,22.99811593367]}},{"type":"Feature","properties":{"name":"\u4fdd\u548c\u5bae"},"geometry":{"type":"Point","coordinates":[120.21360532317,23.045005644308]}},{"type":"Feature","properties":{"name":"\u6c38\u8208\u5bae"},"geometry":{"type":"Point","coordinates":[120.18390087247,23.205637035888]}},{"type":"Feature","properties":{"name":"\u798f\u5b89\u5bae"},"geometry":{"type":"Point","coordinates":[120.14800032086,23.127043180908]}},{"type":"Feature","properties":{"name":"\u958b\u5929\u5bae"},"geometry":{"type":"Point","coordinates":[120.49982469988,23.096433172878]}},{"type":"Feature","properties":{"name":"\u5927\u5e84\u5317\u6975\u6bbf"},"geometry":{"type":"Point","coordinates":[120.40953835935,23.310161225661]}},{"type":"Feature","properties":{"name":"\u986f\u6fdf\u5bae"},"geometry":{"type":"Point","coordinates":[120.43652519382,23.343440965337]}},{"type":"Feature","properties":{"name":"\u7167\u61c9\u5bae"},"geometry":{"type":"Point","coordinates":[120.27024369653,23.033453201556]}},{"type":"Feature","properties":{"name":"\u7cd6\u5ecd\u89d2\u6c11\u5b89\u5bae"},"geometry":{"type":"Point","coordinates":[120.30544380009,23.117971480813]}},{"type":"Feature","properties":{"name":"\u4e94\u5e1d\u5edf"},"geometry":{"type":"Point","coordinates":[120.25822690723,22.945530121996]}},{"type":"Feature","properties":{"name":"\u4fdd\u9748\u5bae"},"geometry":{"type":"Point","coordinates":[120.24764867143,23.052763621295]}},{"type":"Feature","properties":{"name":"\u592a\u5b89\u5bae"},"geometry":{"type":"Point","coordinates":[120.30715207053,23.301750299602]}},{"type":"Feature","properties":{"name":"\u59d1\u5a46\u5edf"},"geometry":{"type":"Point","coordinates":[120.22704686924,23.025530636216]}},{"type":"Feature","properties":{"name":"\u7389\u6e05\u5e9c"},"geometry":{"type":"Point","coordinates":[120.24378580345,23.205319128517]}},{"type":"Feature","properties":{"name":"\u5999\u6cd5\u79aa\u5bfa"},"geometry":{"type":"Point","coordinates":[120.30572200287,23.30188032632]}},{"type":"Feature","properties":{"name":"\u6eaa\u5357\u5bee\u8208\u5b89\u5bae"},"geometry":{"type":"Point","coordinates":[120.15590599909,23.070059308763]}},{"type":"Feature","properties":{"name":"\u5357\u83ef\u5bfa"},"geometry":{"type":"Point","coordinates":[120.14730877195,23.076667007364]}},{"type":"Feature","properties":{"name":"\u5317\u5b89\u5bae"},"geometry":{"type":"Point","coordinates":[120.30246931168,22.963942490151]}},{"type":"Feature","properties":{"name":"\u4e09\u584a\u539d\u9806\u5929\u5bae"},"geometry":{"type":"Point","coordinates":[120.27121051228,22.956598314775]}},{"type":"Feature","properties":{"name":"\u6c38\u5b89\u5bae"},"geometry":{"type":"Point","coordinates":[120.39827748654,22.939103910725]}},{"type":"Feature","properties":{"name":"\u4e0b\u7fa9\u5408\u4fdd\u8208\u5bae"},"geometry":{"type":"Point","coordinates":[120.14274164454,23.101855029449]}},{"type":"Feature","properties":{"name":"\u7389\u6c60\u5bae"},"geometry":{"type":"Point","coordinates":[120.1858955202,23.188327613026]}},{"type":"Feature","properties":{"name":"\u96f2\u5bae"},"geometry":{"type":"Point","coordinates":[120.12825026006,23.135825236532]}},{"type":"Feature","properties":{"name":"\u5357\u6975\u6bbf"},"geometry":{"type":"Point","coordinates":[120.16035430315,22.988963623962]}},{"type":"Feature","properties":{"name":"\u99ac\u93ae\u5bae"},"geometry":{"type":"Point","coordinates":[120.18579108345,22.927363775441]}},{"type":"Feature","properties":{"name":"\u5357\u83ef\u9053\u9662"},"geometry":{"type":"Point","coordinates":[120.40812600342,23.123848555987]}},{"type":"Feature","properties":{"name":"\u7389\u5929\u5bae"},"geometry":{"type":"Point","coordinates":[120.12321344476,23.21029915106]}},{"type":"Feature","properties":{"name":"\u4e09\u754c\u58c7"},"geometry":{"type":"Point","coordinates":[120.45597295148,23.035513446081]}},{"type":"Feature","properties":{"name":"\u91d1\u897f\u5bae"},"geometry":{"type":"Point","coordinates":[120.12248572581,23.269986920551]}},{"type":"Feature","properties":{"name":"\u592a\u5b50\u5bae"},"geometry":{"type":"Point","coordinates":[120.16015208616,23.196810794389]}},{"type":"Feature","properties":{"name":"\u671d\u5929\u5bae"},"geometry":{"type":"Point","coordinates":[120.0910705878,23.190156933312]}},{"type":"Feature","properties":{"name":"\u5927\u8056\u5edf"},"geometry":{"type":"Point","coordinates":[120.22069584681,23.056621588243]}},{"type":"Feature","properties":{"name":"\u91d1\u8208\u5bae"},"geometry":{"type":"Point","coordinates":[120.13738503718,23.214684362261]}},{"type":"Feature","properties":{"name":"\u798f\u5b89\u5bae"},"geometry":{"type":"Point","coordinates":[120.14910528217,23.222667076873]}},{"type":"Feature","properties":{"name":"\u5ee3\u5b89\u5bae"},"geometry":{"type":"Point","coordinates":[120.11631079942,23.220669466871]}},{"type":"Feature","properties":{"name":"\u5c07\u8ecd\u5edf"},"geometry":{"type":"Point","coordinates":[120.19015914232,22.974594530743]}},{"type":"Feature","properties":{"name":"\u6148\u5584\u5bae"},"geometry":{"type":"Point","coordinates":[120.16614340648,23.21365007773]}},{"type":"Feature","properties":{"name":"\u89d2\u5e36\u4fdd\u5b89\u5bae"},"geometry":{"type":"Point","coordinates":[120.26396130046,23.282640325287]}},{"type":"Feature","properties":{"name":"\u5357\u6d77\u666e\u9640\u5bfa"},"geometry":{"type":"Point","coordinates":[120.12378550224,23.21043932065]}},{"type":"Feature","properties":{"name":"\u7121\u6975\u89c0\u4e16\u97f3\u8056\u5802"},"geometry":{"type":"Point","coordinates":[120.154040875,23.198626101345]}},{"type":"Feature","properties":{"name":"\u5ee3\u5fb7\u5802"},"geometry":{"type":"Point","coordinates":[120.26582117724,23.009734079636]}},{"type":"Feature","properties":{"name":"\u798f\u5fb7\u7960"},"geometry":{"type":"Point","coordinates":[120.29651673019,22.958148449748]}},{"type":"Feature","properties":{"name":"\u5d11\u5d19\u5bae"},"geometry":{"type":"Point","coordinates":[120.20562129038,23.071019140633]}},{"type":"Feature","properties":{"name":"\u751f\u6b66\u5bae"},"geometry":{"type":"Point","coordinates":[120.28835429204,23.141697949717]}},{"type":"Feature","properties":{"name":"\u6c38\u8208\u5bae"},"geometry":{"type":"Point","coordinates":[120.14147218889,23.136764384645]}},{"type":"Feature","properties":{"name":"\u6e05\u4fdd\u5bae"},"geometry":{"type":"Point","coordinates":[120.17726255094,23.234476269336]}},{"type":"Feature","properties":{"name":"\u592a\u8208\u5bae"},"geometry":{"type":"Point","coordinates":[120.15817253604,23.304332460094]}},{"type":"Feature","properties":{"name":"\u8ca1\u5718\u6cd5\u4eba\u4e8c\u91cd\u6e2f\u4ec1\u5b89\u5bae"},"geometry":{"type":"Point","coordinates":[120.13876182306,23.241239879258]}},{"type":"Feature","properties":{"name":"\u8a55\u5468\u516c\u5edf"},"geometry":{"type":"Point","coordinates":[120.26601763059,23.007626707571]}},{"type":"Feature","properties":{"name":"\u6cd5\u8208\u5bfa"},"geometry":{"type":"Point","coordinates":[120.33905815464,23.083256141853]}},{"type":"Feature","properties":{"name":"\u5357\u9806\u5bae"},"geometry":{"type":"Point","coordinates":[120.40337454907,23.323912213628]}},{"type":"Feature","properties":{"name":"\u6fa4\u5b89\u5bae"},"geometry":{"type":"Point","coordinates":[120.18987858099,23.105812699645]}},{"type":"Feature","properties":{"name":"\u89c0\u97f3\u5dd6"},"geometry":{"type":"Point","coordinates":[120.0939896693,23.218202917473]}},{"type":"Feature","properties":{"name":"\u6148\u8056\u5bae"},"geometry":{"type":"Point","coordinates":[120.2558293906,23.035184505553]}},{"type":"Feature","properties":{"name":"\u6771\u8208\u5bae"},"geometry":{"type":"Point","coordinates":[120.18543990326,23.225646778168]}},{"type":"Feature","properties":{"name":"\u8ca1\u5718\u6cd5\u4eba\u5bc6\u5b97\u5c71\u5927\u5713\u6eff\u5edf"},"geometry":{"type":"Point","coordinates":[120.46656189775,23.039934044971]}},{"type":"Feature","properties":{"name":"\u570b\u8056\u5bae"},"geometry":{"type":"Point","coordinates":[120.15766349204,23.21021518201]}},{"type":"Feature","properties":{"name":"\u6771\u8208\u5bae"},"geometry":{"type":"Point","coordinates":[120.13193407208,23.240671265016]}},{"type":"Feature","properties":{"name":"\u660c\u5b89\u5bae"},"geometry":{"type":"Point","coordinates":[120.15419600502,23.20630995957]}},{"type":"Feature","properties":{"name":"\u7d14\u967d\u8056\u5802"},"geometry":{"type":"Point","coordinates":[120.50041633038,23.268045684057]}},{"type":"Feature","properties":{"name":"\u5929\u5fc3\u793e\u6b63\u7fa9\u5802"},"geometry":{"type":"Point","coordinates":[120.17438156815,23.220565702256]}},{"type":"Feature","properties":{"name":"\u8056\u5e1d\u6bbf"},"geometry":{"type":"Point","coordinates":[120.15007227798,23.198167399127]}},{"type":"Feature","properties":{"name":"\u9f8d\u8208\u5bae"},"geometry":{"type":"Point","coordinates":[120.15703727154,23.203113664362]}},{"type":"Feature","properties":{"name":"\u6e05\u6e44\u5bae"},"geometry":{"type":"Point","coordinates":[120.15247864112,23.197363180407]}},{"type":"Feature","properties":{"name":"\u9f8d\u4f5b\u5bae"},"geometry":{"type":"Point","coordinates":[120.12822877271,23.29960071886]}},{"type":"Feature","properties":{"name":"\u671d\u5929\u5bae"},"geometry":{"type":"Point","coordinates":[120.29453938012,22.996221999222]}},{"type":"Feature","properties":{"name":"\u897f\u8208\u5bae"},"geometry":{"type":"Point","coordinates":[120.1405416448,23.266697605877]}},{"type":"Feature","properties":{"name":"\u5357\u8056\u5bae"},"geometry":{"type":"Point","coordinates":[120.15708553799,23.225751665231]}},{"type":"Feature","properties":{"name":"\u897f\u7f85\u6bbf"},"geometry":{"type":"Point","coordinates":[120.19610872884,22.996888963269]}},{"type":"Feature","properties":{"name":"\u6b63\u6210\u5e9c"},"geometry":{"type":"Point","coordinates":[120.13466473591,23.281740421225]}},{"type":"Feature","properties":{"name":"\u7389\u65e8\u5bae"},